$GNGGA,103806.00,,,,,0,00,99.99,,,,,,*74
$GNGGA,103807.00,,,,,0,00,99.99,,,,,,*75
$GNGGA,103808.00,,,,,0,00,99.99,,,,,,*7A
$GNGGA,103808.98,,,,,0,00,99.99,,,,,,*7B
$GNGGA,103810.00,,,,,0,00,99.99,,,,,,*73
$GNGGA,103811.00,,,,,0,00,99.99,,,,,,*72
$GNGGA,103812.00,,,,,0,00,99.99,,,,,,*71
$GNGGA,103810.99,,,,,0,00,99.99,,,,,,*73
$GNGGA,103812.00,,,,,0,00,99.99,,,,,,*71
$GNGGA,103813.00,,,,,0,00,99.99,,,,,,*70
$GNGGA,103814.00,,,,,0,00,99.99,,,,,,*77
$GNGGA,103815.00,,,,,0,00,99.99,,,,,,*76
$GNGGA,103816.00,,,,,0,00,99.99,,,,,,*75
$GNGGA,103817.00,,,,,0,00,99.99,,,,,,*74
$GNGGA,103818.00,,,,,0,00,99.99,,,,,,*7B
$GNGGA,103819.00,,,,,0,00,99.99,,,,,,*7A
$GNGGA,103820.00,,,,,0,00,99.99,,,,,,*70
$GNGGA,103821.00,,,,,0,00,99.99,,,,,,*71
$GNGGA,103822.00,,,,,0,00,99.99,,,,,,*72
$GNGGA,103823.00,,,,,0,00,99.99,,,,,,*73
$GNGGA,103824.00,,,,,0,00,99.99,,,,,,*74
$GNGGA,103825.00,,,,,0,00,99.99,,,,,,*75
$GNGGA,103826.00,,,,,0,00,99.99,,,,,,*76
$GNGGA,103827.00,,,,,0,00,99.99,,,,,,*77
$GNGGA,103828.00,,,,,0,00,99.99,,,,,,*78
$GNGGA,103829.00,,,,,0,00,99.99,,,,,,*79
$GNGGA,103830.00,,,,,0,00,99.99,,,,,,*71
$GNGGA,103831.00,,,,,0,00,99.99,,,,,,*70
$GNGGA,103832.00,,,,,0,00,99.99,,,,,,*73
$GNGGA,103833.00,,,,,0,00,99.99,,,,,,*72
$GNGGA,103834.00,,,,,0,00,99.99,,,,,,*75
$GNGGA,103835.00,,,,,0,00,99.99,,,,,,*74
$GNGGA,103836.00,,,,,0,00,99.99,,,,,,*77
$GNGGA,103837.00,,,,,0,00,99.99,,,,,,*76
$GNGGA,103838.00,,,,,0,00,99.99,,,,,,*79
$GNGGA,103839.00,,,,,0,00,99.99,,,,,,*78
$GNGGA,103840.00,,,,,0,00,99.99,,,,,,*76
$GNGGA,103841.00,,,,,0,00,99.99,,,,,,*77
$GNGGA,103842.00,,,,,0,00,99.99,,,,,,*74
$GNGGA,103843.00,,,,,0,00,99.99,,,,,,*75
$GNGGA,103844.00,,,,,0,00,99.99,,,,,,*72
$GNGGA,103845.00,,,,,0,00,99.99,,,,,,*73
$GNGGA,103846.00,,,,,0,00,99.99,,,,,,*70
$GNGGA,103847.00,,,,,0,00,99.99,,,,,,*71
$GNGGA,103848.01,,,,,0,04,11.05,,,,,,*7E
$GNGGA,103849.00,,,,,0,04,11.04,,,,,,*7F
$GNGGA,103850.00,,,,,0,00,99.99,,,,,,*77
$GNGGA,103851.00,,,,,0,00,99.99,,,,,,*76
$GNGGA,103852.00,,,,,0,00,99.99,,,,,,*75
$GNGGA,103853.00,,,,,0,00,99.99,,,,,,*74
$GNGGA,103854.00,,,,,0,00,99.99,,,,,,*73
$GNGGA,103855.00,,,,,0,04,11.01,,,,,,*77
$GNGGA,103856.00,,,,,0,04,11.00,,,,,,*75
$GNGGA,103857.00,,,,,0,04,11.00,,,,,,*74
$GNGGA,103858.00,,,,,0,04,10.99,,,,,,*7A
$GNGGA,103859.00,,,,,0,04,10.99,,,,,,*7B
$GNGGA,103900.00,,,,,0,04,10.98,,,,,,*77
$GNGGA,103901.00,5215.21934,N,00005.48754,W,1,07,1.57,-15.8,M,45.8,M,,*47
$GNGGA,103902.00,5215.21900,N,00005.48132,W,1,07,1.57,27.0,M,45.8,M,,*61
$GNGGA,103903.00,5215.21875,N,00005.47981,W,1,07,1.57,36.9,M,45.8,M,,*65
$GNGGA,103904.00,5215.21689,N,00005.47705,W,1,07,1.57,48.2,M,45.8,M,,*6F
$GNGGA,103905.00,5215.21620,N,00005.47658,W,1,07,1.57,52.1,M,45.8,M,,*6C
$GNGGA,103906.00,5215.21587,N,00005.47655,W,1,07,1.57,51.9,M,45.8,M,,*67
$GNGGA,103907.00,5215.21549,N,00005.47615,W,1,07,1.57,53.4,M,45.8,M,,*6F
$GNGGA,103908.00,5215.21526,N,00005.47593,W,1,07,1.57,53.6,M,45.8,M,,*66
$GNGGA,103909.00,5215.21512,N,00005.47577,W,1,08,1.51,54.3,M,45.8,M,,*61
$GNGGA,103910.00,5215.21504,N,00005.47566,W,1,08,1.51,54.4,M,45.8,M,,*69
$GNGGA,103911.00,5215.21512,N,00005.47559,W,1,08,1.51,54.4,M,45.8,M,,*63
$GNGGA,103912.00,5215.21507,N,00005.47555,W,1,08,1.51,54.4,M,45.8,M,,*68
$GNGGA,103913.00,5215.21507,N,00005.47555,W,1,08,1.52,54.3,M,45.8,M,,*6D
$GNGGA,103914.00,5215.21509,N,00005.47554,W,1,08,1.52,54.4,M,45.8,M,,*62
$GNGGA,103915.00,5215.21469,N,00005.47555,W,1,08,1.52,54.0,M,45.8,M,,*61
$GNGGA,103916.00,5215.21464,N,00005.47562,W,1,08,1.52,53.9,M,45.8,M,,*65
$GNGGA,103917.00,5215.21473,N,00005.47579,W,1,08,1.52,54.5,M,45.8,M,,*63
$GNGGA,103918.00,5215.21470,N,00005.47576,W,1,08,1.52,55.1,M,45.8,M,,*65
$GNGGA,103919.00,5215.21471,N,00005.47581,W,1,08,1.52,55.4,M,45.8,M,,*68
$GNGGA,103920.00,5215.21473,N,00005.47586,W,1,08,1.52,55.4,M,45.8,M,,*67
$GNGGA,103921.00,5215.21477,N,00005.47589,W,1,08,1.52,55.6,M,45.8,M,,*6F
$GNGGA,103922.00,5215.21474,N,00005.47585,W,1,08,1.52,55.7,M,45.8,M,,*62
$GNGGA,103923.00,5215.21485,N,00005.47586,W,1,08,1.52,55.7,M,45.8,M,,*6E
$GNGGA,103924.00,5215.21490,N,00005.47590,W,1,08,1.52,55.7,M,45.8,M,,*6A
$GNGGA,103925.00,5215.21484,N,00005.47594,W,1,08,1.52,55.5,M,45.8,M,,*68
$GNGGA,103926.00,5215.21492,N,00005.47602,W,1,07,1.67,55.7,M,45.8,M,,*6B
$GNGGA,103927.00,5215.21488,N,00005.47598,W,1,07,1.67,55.7,M,45.8,M,,*61
$GNGGA,103928.00,5215.21487,N,00005.47590,W,1,07,1.67,55.7,M,45.8,M,,*69
$GNGGA,103929.00,5215.21509,N,00005.47604,W,1,08,1.67,55.9,M,45.8,M,,*60
$GNGGA,103930.00,5215.21524,N,00005.47614,W,1,08,1.52,55.4,M,45.8,M,,*6D
$GNGGA,103931.00,5215.21479,N,00005.47597,W,1,08,1.52,54.6,M,45.8,M,,*6E
$GNGGA,103932.00,5215.21389,N,00005.47572,W,1,08,1.52,53.7,M,45.8,M,,*68
$GNGGA,103933.00,5215.21380,N,00005.47572,W,1,08,1.52,53.5,M,45.8,M,,*62
$GNGGA,103934.00,5215.21378,N,00005.47572,W,1,08,1.52,53.5,M,45.8,M,,*62
$GNGGA,103935.00,5215.21370,N,00005.47559,W,1,08,1.52,53.5,M,45.8,M,,*62
$GNGGA,103936.00,5215.21361,N,00005.47552,W,1,08,1.52,53.5,M,45.8,M,,*6A
$GNGGA,103937.00,5215.21339,N,00005.47574,W,1,08,1.67,53.3,M,45.8,M,,*62
$GNGGA,103938.00,5215.21329,N,00005.47559,W,1,08,1.52,53.2,M,45.8,M,,*64
$GNGGA,103939.00,5215.21344,N,00005.47553,W,1,08,1.52,53.4,M,45.8,M,,*62
$GNGGA,103940.00,5215.21357,N,00005.47545,W,1,08,1.52,53.7,M,45.8,M,,*6A
$GNGGA,103941.00,5215.21361,N,00005.47540,W,1,08,1.52,53.6,M,45.8,M,,*6A
$GNGGA,103942.00,5215.21358,N,00005.47536,W,1,08,1.52,53.4,M,45.8,M,,*60
$GNGGA,103943.00,5215.21352,N,00005.47529,W,1,08,1.52,53.2,M,45.8,M,,*63
$GNGGA,103944.00,5215.21352,N,00005.47530,W,1,08,1.52,53.2,M,45.8,M,,*6C
$GNGGA,103945.00,5215.21350,N,00005.47527,W,1,08,1.52,53.1,M,45.8,M,,*6A
$GNGGA,103946.00,5215.21345,N,00005.47523,W,1,08,1.52,52.9,M,45.8,M,,*60
$GNGGA,103947.00,5215.21346,N,00005.47529,W,1,08,1.52,52.8,M,45.8,M,,*69
$GNGGA,103948.00,5215.21335,N,00005.47524,W,1,08,1.52,52.6,M,45.8,M,,*61
$GNGGA,103949.00,5215.21329,N,00005.47509,W,1,08,1.52,52.3,M,45.8,M,,*67
$GNGGA,103950.00,5215.21321,N,00005.47502,W,1,08,1.52,52.3,M,45.8,M,,*6C
$GNGGA,103951.00,5215.21331,N,00005.47510,W,1,08,1.52,52.3,M,45.8,M,,*6F
$GNGGA,103952.00,5215.21335,N,00005.47510,W,1,08,1.52,52.3,M,45.8,M,,*68
$GNGGA,103953.00,5215.21334,N,00005.47510,W,1,08,1.52,52.3,M,45.8,M,,*68
$GNGGA,103954.00,5215.21332,N,00005.47506,W,1,08,1.52,52.2,M,45.8,M,,*6F
$GNGGA,103955.00,5215.21335,N,00005.47509,W,1,08,1.52,52.2,M,45.8,M,,*66
$GNGGA,103956.00,5215.21336,N,00005.47510,W,1,08,1.52,52.2,M,45.8,M,,*6E
$GNGGA,103957.00,5215.21330,N,00005.47509,W,1,08,1.52,52.2,M,45.8,M,,*61
$GNGGA,103958.00,5215.21332,N,00005.47511,W,1,08,1.52,52.3,M,45.8,M,,*64
$GNGGA,103959.00,5215.21330,N,00005.47512,W,1,08,1.52,52.2,M,45.8,M,,*65
$GNGGA,104000.00,5215.21338,N,00005.47523,W,1,08,1.52,52.3,M,45.8,M,,*6C
$GNGGA,104001.00,5215.21345,N,00005.47534,W,1,08,1.52,52.4,M,45.8,M,,*66
$GNGGA,104002.00,5215.21349,N,00005.47534,W,1,08,1.52,52.5,M,45.8,M,,*68
$GNGGA,104003.00,5215.21354,N,00005.47532,W,1,08,1.52,52.6,M,45.8,M,,*60
$GNGGA,104004.00,5215.21351,N,00005.47518,W,1,08,1.52,52.6,M,45.8,M,,*6A
$GNGGA,104005.00,5215.21350,N,00005.47512,W,1,08,1.52,52.6,M,45.8,M,,*60
$GNGGA,104006.00,5215.21355,N,00005.47515,W,1,08,1.52,52.7,M,45.8,M,,*60
$GNGGA,104007.00,5215.21358,N,00005.47516,W,1,08,1.52,52.6,M,45.8,M,,*6E
$GNGGA,104008.00,5215.21356,N,00005.47514,W,1,08,1.52,52.6,M,45.8,M,,*6D
$GNGGA,104009.00,5215.21353,N,00005.47513,W,1,09,1.49,52.6,M,45.8,M,,*65
$GNGGA,104010.00,5215.21357,N,00005.47509,W,1,09,1.49,52.5,M,45.8,M,,*61
$GNGGA,104011.00,5215.21369,N,00005.47524,W,1,09,1.49,52.7,M,45.8,M,,*60
$GNGGA,104012.00,5215.21379,N,00005.47529,W,1,09,1.49,52.9,M,45.8,M,,*61
$GNGGA,104013.00,5215.21392,N,00005.47544,W,1,09,1.49,53.0,M,45.8,M,,*66
$GNGGA,104014.00,5215.21403,N,00005.47563,W,1,09,1.49,53.1,M,45.8,M,,*6A
$GNGGA,104015.00,5215.21403,N,00005.47561,W,1,09,1.49,53.0,M,45.8,M,,*68
$GNGGA,104016.00,5215.21398,N,00005.47554,W,1,09,1.49,52.9,M,45.8,M,,*60
$GNGGA,104017.00,5215.21398,N,00005.47558,W,1,09,1.49,52.9,M,45.8,M,,*6D
$GNGGA,104018.00,5215.21395,N,00005.47559,W,1,09,1.49,52.9,M,45.8,M,,*6E
$GNGGA,104019.00,5215.21396,N,00005.47562,W,1,09,1.49,52.9,M,45.8,M,,*64
$GNGGA,104020.00,5215.21394,N,00005.47564,W,1,09,1.49,52.7,M,45.8,M,,*64
$GNGGA,104021.00,5215.21387,N,00005.47565,W,1,09,1.49,52.5,M,45.8,M,,*64
$GNGGA,104022.00,5215.21369,N,00005.47548,W,1,09,1.49,52.2,M,45.8,M,,*6F
$GNGGA,104023.00,5215.21371,N,00005.47560,W,1,09,1.49,52.1,M,45.8,M,,*6E
$GNGGA,104024.00,5215.21372,N,00005.47567,W,1,09,1.49,52.2,M,45.8,M,,*6E
$GNGGA,104025.00,5215.21374,N,00005.47572,W,1,09,1.49,52.3,M,45.8,M,,*6C
$GNGGA,104026.00,5215.21373,N,00005.47567,W,1,09,1.49,52.2,M,45.8,M,,*6D
$GNGGA,104027.00,5215.21371,N,00005.47564,W,1,09,1.49,52.0,M,45.8,M,,*6F
$GNGGA,104028.00,5215.21369,N,00005.47567,W,1,09,1.49,52.0,M,45.8,M,,*6A
$GNGGA,104029.00,5215.21371,N,00005.47571,W,1,09,1.49,51.9,M,45.8,M,,*6F
$GNGGA,104030.00,5215.21373,N,00005.47571,W,1,09,1.49,52.0,M,45.8,M,,*6F
$GNGGA,104031.00,5215.21366,N,00005.47561,W,1,09,1.49,51.9,M,45.8,M,,*61
$GNGGA,104032.00,5215.21346,N,00005.47544,W,1,09,1.49,51.7,M,45.8,M,,*69
$GNGGA,104033.00,5215.21341,N,00005.47538,W,1,09,1.49,51.6,M,45.8,M,,*65
$GNGGA,104034.00,5215.21323,N,00005.47523,W,1,09,1.50,51.4,M,45.8,M,,*66
$GNGGA,104035.00,5215.21318,N,00005.47516,W,1,09,1.50,51.2,M,45.8,M,,*6F
$GNGGA,104036.00,5215.21330,N,00005.47524,W,1,09,1.50,51.2,M,45.8,M,,*67
$GNGGA,104037.00,5215.21329,N,00005.47522,W,1,09,1.50,51.2,M,45.8,M,,*68
$GNGGA,104038.00,5215.21325,N,00005.47518,W,1,09,1.50,51.2,M,45.8,M,,*62
$GNGGA,104039.00,5215.21324,N,00005.47518,W,1,09,1.50,51.2,M,45.8,M,,*62
$GNGGA,104040.00,5215.21319,N,00005.47516,W,1,09,1.50,51.1,M,45.8,M,,*6F
$GNGGA,104041.00,5215.21324,N,00005.47519,W,1,09,1.50,51.2,M,45.8,M,,*6C
$GNGGA,104042.00,5215.21323,N,00005.47512,W,1,09,1.50,51.2,M,45.8,M,,*63
$GNGGA,104043.00,5215.21323,N,00005.47508,W,1,09,1.50,51.3,M,45.8,M,,*68
$GNGGA,104044.00,5215.21331,N,00005.47507,W,1,09,1.50,51.5,M,45.8,M,,*65
$GNGGA,104045.00,5215.21340,N,00005.47521,W,1,09,1.50,51.4,M,45.8,M,,*67
$GNGGA,104046.00,5215.21336,N,00005.47510,W,1,09,1.50,51.3,M,45.8,M,,*60
$GNGGA,104047.00,5215.21338,N,00005.47512,W,1,09,1.50,51.3,M,45.8,M,,*6D
$GNGGA,104048.00,5215.21335,N,00005.47509,W,1,09,1.50,51.2,M,45.8,M,,*64
$GNGGA,104049.00,5215.21324,N,00005.47499,W,1,09,1.50,51.1,M,45.8,M,,*6E
$GNGGA,104050.00,5215.21316,N,00005.47489,W,1,09,1.50,51.0,M,45.8,M,,*67
$GNGGA,104051.00,5215.21311,N,00005.47483,W,1,09,1.50,50.9,M,45.8,M,,*63
$GNGGA,104052.00,5215.21313,N,00005.47485,W,1,09,1.50,50.9,M,45.8,M,,*64
$GNGGA,104053.00,5215.21313,N,00005.47486,W,1,09,1.50,50.9,M,45.8,M,,*66
$GNGGA,104054.00,5215.21307,N,00005.47485,W,1,08,1.65,50.9,M,45.8,M,,*60
$GNGGA,104055.00,5215.21298,N,00005.47480,W,1,09,1.50,50.9,M,45.8,M,,*64
$GNGGA,104056.00,5215.21298,N,00005.47492,W,1,09,1.50,51.0,M,45.8,M,,*6C
$GNGGA,104057.00,5215.21304,N,00005.47500,W,1,09,1.50,51.1,M,45.8,M,,*62
$GNGGA,104058.00,5215.21301,N,00005.47498,W,1,09,1.50,51.0,M,45.8,M,,*69
$GNGGA,104059.00,5215.21309,N,00005.47504,W,1,09,1.50,51.0,M,45.8,M,,*64
$GNGGA,104100.00,5215.21308,N,00005.47502,W,1,09,1.50,51.0,M,45.8,M,,*6E
$GNGGA,104101.00,5215.21306,N,00005.47498,W,1,09,1.50,50.9,M,45.8,M,,*6B
$GNGGA,104102.00,5215.21303,N,00005.47496,W,1,09,1.50,50.8,M,45.8,M,,*62
$GNGGA,104103.00,5215.21297,N,00005.47496,W,1,09,1.50,50.7,M,45.8,M,,*60
$GNGGA,104104.00,5215.21290,N,00005.47494,W,1,09,1.50,50.6,M,45.8,M,,*63
$GNGGA,104105.00,5215.21296,N,00005.47499,W,1,09,1.50,50.7,M,45.8,M,,*68
$GNGGA,104106.00,5215.21293,N,00005.47501,W,1,09,1.50,50.7,M,45.8,M,,*6E
$GNGGA,104107.00,5215.21303,N,00005.47497,W,1,09,1.50,50.7,M,45.8,M,,*69
$GNGGA,104108.00,5215.21335,N,00005.47507,W,1,09,1.50,51.0,M,45.8,M,,*6D
$GNGGA,104109.00,5215.21344,N,00005.47512,W,1,09,1.50,51.3,M,45.8,M,,*6D
$GNGGA,104110.00,5215.21352,N,00005.47520,W,1,09,1.50,51.4,M,45.8,M,,*64
$GNGGA,104111.00,5215.21358,N,00005.47520,W,1,09,1.50,51.5,M,45.8,M,,*6E
$GNGGA,104112.00,5215.21359,N,00005.47520,W,1,09,1.50,51.6,M,45.8,M,,*6F
$GNGGA,104113.00,5215.21359,N,00005.47518,W,1,09,1.50,51.7,M,45.8,M,,*64
$GNGGA,104114.00,5215.21359,N,00005.47514,W,1,09,1.50,51.7,M,45.8,M,,*6F
$GNGGA,104115.00,5215.21360,N,00005.47511,W,1,09,1.50,51.7,M,45.8,M,,*61
$GNGGA,104116.00,5215.21356,N,00005.47508,W,1,09,1.50,51.7,M,45.8,M,,*6F
$GNGGA,104117.00,5215.21358,N,00005.47510,W,1,09,1.50,51.9,M,45.8,M,,*67
$GNGGA,104118.00,5215.21382,N,00005.47520,W,1,09,1.50,52.2,M,45.8,M,,*64
$GNGGA,104119.00,5215.21383,N,00005.47527,W,1,09,1.50,52.4,M,45.8,M,,*65
$GNGGA,104120.00,5215.21388,N,00005.47532,W,1,09,1.50,52.4,M,45.8,M,,*60
$GNGGA,104121.00,5215.21389,N,00005.47535,W,1,09,1.50,52.4,M,45.8,M,,*67
$GNGGA,104122.00,5215.21391,N,00005.47535,W,1,09,1.50,52.4,M,45.8,M,,*6D
$GNGGA,104123.00,5215.21390,N,00005.47531,W,1,09,1.50,52.4,M,45.8,M,,*69
$GNGGA,104124.00,5215.21395,N,00005.47536,W,1,09,1.50,52.5,M,45.8,M,,*6D
$GNGGA,104125.00,5215.21398,N,00005.47537,W,1,10,1.37,52.6,M,45.8,M,,*6A
$GNGGA,104126.00,5215.21398,N,00005.47537,W,1,10,1.37,52.6,M,45.8,M,,*69
$GNGGA,104127.00,5215.21400,N,00005.47541,W,1,10,1.37,52.7,M,45.8,M,,*6E
$GNGGA,104128.00,5215.21403,N,00005.47539,W,1,10,1.37,52.8,M,45.8,M,,*62
$GNGGA,104129.00,5215.21394,N,00005.47523,W,1,10,1.37,52.6,M,45.8,M,,*6F
$GNGGA,104130.00,5215.21398,N,00005.47519,W,1,10,1.37,52.7,M,45.8,M,,*63
$GNGGA,104131.00,5215.21399,N,00005.47520,W,1,10,1.37,52.8,M,45.8,M,,*66
$GNGGA,104132.00,5215.21400,N,00005.47517,W,1,10,1.37,52.9,M,45.8,M,,*67
$GNGGA,104133.00,5215.21403,N,00005.47519,W,1,10,1.37,52.9,M,45.8,M,,*6B
$GNGGA,104134.00,5215.21412,N,00005.47525,W,1,10,1.37,53.0,M,45.8,M,,*6B
$GNGGA,104135.00,5215.21413,N,00005.47527,W,1,10,1.37,53.0,M,45.8,M,,*69
$GNGGA,104136.00,5215.21416,N,00005.47527,W,1,10,1.37,53.0,M,45.8,M,,*6F
$GNGGA,104137.00,5215.21419,N,00005.47531,W,1,10,1.37,53.0,M,45.8,M,,*66
$GNGGA,104138.00,5215.21419,N,00005.47531,W,1,10,1.37,53.0,M,45.8,M,,*69
$GNGGA,104139.00,5215.21412,N,00005.47517,W,1,10,1.38,52.8,M,45.8,M,,*61
$GNGGA,104140.00,5215.21400,N,00005.47505,W,1,10,1.38,52.5,M,45.8,M,,*62
$GNGGA,104141.00,5215.21396,N,00005.47498,W,1,10,1.38,52.5,M,45.8,M,,*6E
$GNGGA,104142.00,5215.21396,N,00005.47500,W,1,10,1.38,52.5,M,45.8,M,,*6D
$GNGGA,104143.00,5215.21396,N,00005.47500,W,1,10,1.38,52.5,M,45.8,M,,*6C
$GNGGA,104144.00,5215.21400,N,00005.47497,W,1,10,1.38,52.6,M,45.8,M,,*6F
$GNGGA,104145.00,5215.21399,N,00005.47494,W,1,10,1.38,52.7,M,45.8,M,,*6B
$GNGGA,104146.00,5215.21404,N,00005.47496,W,1,10,1.38,52.8,M,45.8,M,,*66
$GNGGA,104147.00,5215.21407,N,00005.47498,W,1,10,1.38,52.8,M,45.8,M,,*6A
$GNGGA,104148.00,5215.21408,N,00005.47499,W,1,10,1.38,52.9,M,45.8,M,,*6A
$GNGGA,104149.00,5215.21410,N,00005.47501,W,1,10,1.38,52.8,M,45.8,M,,*63
$GNGGA,104150.00,5215.21411,N,00005.47499,W,1,10,1.38,52.7,M,45.8,M,,*65
$GNGGA,104151.00,5215.21410,N,00005.47497,W,1,10,1.38,52.6,M,45.8,M,,*6A
$GNGGA,104152.00,5215.21423,N,00005.47512,W,1,10,1.38,52.8,M,45.8,M,,*6B
$GNGGA,104153.00,5215.21423,N,00005.47508,W,1,10,1.38,52.8,M,45.8,M,,*61
$GNGGA,104154.00,5215.21425,N,00005.47512,W,1,10,1.38,52.8,M,45.8,M,,*6B
$GNGGA,104155.00,5215.21424,N,00005.47507,W,1,10,1.38,52.8,M,45.8,M,,*6F
$GNGGA,104156.00,5215.21431,N,00005.47511,W,1,10,1.38,52.8,M,45.8,M,,*6F
$GNGGA,104157.00,5215.21437,N,00005.47516,W,1,10,1.38,52.8,M,45.8,M,,*6F
$GNGGA,104158.00,5215.21441,N,00005.47518,W,1,10,1.38,52.9,M,45.8,M,,*6E
$GNGGA,104159.00,5215.21438,N,00005.47513,W,1,10,1.38,52.9,M,45.8,M,,*6A
$GNGGA,104200.00,5215.21430,N,00005.47503,W,1,10,1.38,52.8,M,45.8,M,,*6D
$GNGGA,104201.00,5215.21430,N,00005.47501,W,1,10,1.38,52.7,M,45.8,M,,*61
$GNGGA,104202.00,5215.21413,N,00005.47487,W,1,10,1.38,52.4,M,45.8,M,,*6F
$GNGGA,104203.00,5215.21409,N,00005.47483,W,1,10,1.38,52.3,M,45.8,M,,*66
$GNGGA,104204.00,5215.21414,N,00005.47489,W,1,10,1.38,52.3,M,45.8,M,,*67
$GNGGA,104205.00,5215.21412,N,00005.47488,W,1,10,1.38,52.3,M,45.8,M,,*61
$GNGGA,104206.00,5215.21416,N,00005.47492,W,1,10,1.38,52.2,M,45.8,M,,*6C
$GNGGA,104207.00,5215.21412,N,00005.47487,W,1,10,1.38,52.1,M,45.8,M,,*6E
$GNGGA,104208.00,5215.21404,N,00005.47478,W,1,10,1.38,52.0,M,45.8,M,,*67
$GNGGA,104209.00,5215.21401,N,00005.47477,W,1,10,1.38,51.9,M,45.8,M,,*66
$GNGGA,104210.00,5215.21399,N,00005.47477,W,1,10,1.38,51.9,M,45.8,M,,*68
$GNGGA,104211.00,5215.21396,N,00005.47474,W,1,10,1.38,51.8,M,45.8,M,,*64
$GNGGA,104212.00,5215.21390,N,00005.47469,W,1,10,1.38,51.7,M,45.8,M,,*62
$GNGGA,104213.00,5215.21384,N,00005.47471,W,1,10,1.38,51.6,M,45.8,M,,*6E
$GNGGA,104214.00,5215.21372,N,00005.47461,W,1,10,1.38,51.4,M,45.8,M,,*63
$GNGGA,104215.00,5215.21370,N,00005.47462,W,1,10,1.38,51.4,M,45.8,M,,*63
$GNGGA,104216.00,5215.21365,N,00005.47455,W,1,10,1.38,51.3,M,45.8,M,,*67
$GNGGA,104217.00,5215.21364,N,00005.47449,W,1,10,1.38,51.4,M,45.8,M,,*6D
$GNGGA,104218.00,5215.21362,N,00005.47449,W,1,10,1.38,51.4,M,45.8,M,,*64
$GNGGA,104219.00,5215.21363,N,00005.47453,W,1,10,1.38,51.3,M,45.8,M,,*68
$GNGGA,104220.00,5215.21361,N,00005.47455,W,1,10,1.38,51.2,M,45.8,M,,*67
$GNGGA,104221.00,5215.21361,N,00005.47458,W,1,10,1.38,51.2,M,45.8,M,,*6B
$GNGGA,104222.00,5215.21358,N,00005.47457,W,1,10,1.38,51.2,M,45.8,M,,*6D
$GNGGA,104223.00,5215.21356,N,00005.47467,W,1,10,1.38,51.2,M,45.8,M,,*61
$GNGGA,104224.00,5215.21345,N,00005.47462,W,1,10,1.38,51.1,M,45.8,M,,*62
$GNGGA,104225.00,5215.21326,N,00005.47449,W,1,10,1.38,50.9,M,45.8,M,,*66
$GNGGA,104226.00,5215.21326,N,00005.47459,W,1,10,1.38,50.8,M,45.8,M,,*65
$GNGGA,104227.00,5215.21320,N,00005.47468,W,1,10,1.38,50.8,M,45.8,M,,*60
$GNGGA,104228.00,5215.21302,N,00005.47458,W,1,10,1.38,50.8,M,45.8,M,,*6C
$GNGGA,104229.00,5215.21292,N,00005.47446,W,1,10,1.38,50.6,M,45.8,M,,*64
$GNGGA,104230.00,5215.21292,N,00005.47446,W,1,10,1.38,50.6,M,45.8,M,,*6C
$GNGGA,104231.00,5215.21289,N,00005.47443,W,1,10,1.38,50.6,M,45.8,M,,*62
$GNGGA,104232.00,5215.21285,N,00005.47438,W,1,10,1.38,50.6,M,45.8,M,,*61
$GNGGA,104233.00,5215.21276,N,00005.47423,W,1,10,1.38,50.7,M,45.8,M,,*67
$GNGGA,104234.00,5215.21266,N,00005.47410,W,1,10,1.38,50.6,M,45.8,M,,*60
$GNGGA,104235.00,5215.21245,N,00005.47400,W,1,10,1.38,50.5,M,45.8,M,,*62
$GNGGA,104236.00,5215.21250,N,00005.47408,W,1,10,1.38,50.6,M,45.8,M,,*6E
$GNGGA,104237.00,5215.21251,N,00005.47403,W,1,10,1.38,50.7,M,45.8,M,,*64
$GNGGA,104238.00,5215.21246,N,00005.47401,W,1,10,1.38,50.7,M,45.8,M,,*6F
$GNGGA,104239.00,5215.21248,N,00005.47398,W,1,10,1.38,50.8,M,45.8,M,,*68
$GNGGA,104240.00,5215.21251,N,00005.47402,W,1,10,1.38,50.7,M,45.8,M,,*65
$GNGGA,104241.00,5215.21250,N,00005.47407,W,1,10,1.38,50.7,M,45.8,M,,*60
$GNGGA,104242.00,5215.21247,N,00005.47407,W,1,10,1.38,50.6,M,45.8,M,,*64
$GNGGA,104243.00,5215.21243,N,00005.47408,W,1,10,1.38,50.6,M,45.8,M,,*6E
$GNGGA,104244.00,5215.21233,N,00005.47406,W,1,10,1.38,50.4,M,45.8,M,,*62
$GNGGA,104245.00,5215.21218,N,00005.47400,W,1,10,1.38,50.3,M,45.8,M,,*6B
$GNGGA,104246.00,5215.21223,N,00005.47406,W,1,10,1.38,50.6,M,45.8,M,,*63
$GNGGA,104247.00,5215.21218,N,00005.47414,W,1,10,1.38,50.6,M,45.8,M,,*69
$GNGGA,104248.00,5215.21208,N,00005.47402,W,1,10,1.38,50.6,M,45.8,M,,*60
$GNGGA,104249.00,5215.21219,N,00005.47417,W,1,10,1.38,50.7,M,45.8,M,,*64
$GNGGA,104250.00,5215.21222,N,00005.47425,W,1,10,1.38,50.7,M,45.8,M,,*65
$GNGGA,104251.00,5215.21225,N,00005.47432,W,1,10,1.38,50.7,M,45.8,M,,*65
$GNGGA,104252.00,5215.21228,N,00005.47439,W,1,10,1.38,50.7,M,45.8,M,,*60
$GNGGA,104253.00,5215.21232,N,00005.47446,W,1,10,1.38,50.7,M,45.8,M,,*62
$GNGGA,104254.00,5215.21231,N,00005.47445,W,1,10,1.38,50.7,M,45.8,M,,*65
$GNGGA,104255.00,5215.21231,N,00005.47447,W,1,10,1.38,50.5,M,45.8,M,,*64
$GNGGA,104256.00,5215.21221,N,00005.47432,W,1,10,1.38,50.5,M,45.8,M,,*64
$GNGGA,104257.00,5215.21219,N,00005.47431,W,1,10,1.38,50.4,M,45.8,M,,*6C
$GNGGA,104258.00,5215.21241,N,00005.47451,W,1,10,1.38,50.6,M,45.8,M,,*6A
$GNGGA,104259.00,5215.21256,N,00005.47455,W,1,10,1.38,50.7,M,45.8,M,,*68
$GNGGA,104300.00,5215.21270,N,00005.47463,W,1,10,1.38,51.0,M,45.8,M,,*62
$GNGGA,104301.00,5215.21275,N,00005.47463,W,1,10,1.38,51.0,M,45.8,M,,*66
$GNGGA,104302.00,5215.21287,N,00005.47470,W,1,10,1.38,51.2,M,45.8,M,,*68
$GNGGA,104303.00,5215.21302,N,00005.47479,W,1,10,1.38,51.4,M,45.8,M,,*6A
$GNGGA,104304.00,5215.21308,N,00005.47484,W,1,10,1.38,51.5,M,45.8,M,,*64
$GNGGA,104305.00,5215.21308,N,00005.47486,W,1,10,1.38,51.5,M,45.8,M,,*67
$GNGGA,104306.00,5215.21311,N,00005.47490,W,1,10,1.38,51.5,M,45.8,M,,*6B
$GNGGA,104307.00,5215.21314,N,00005.47495,W,1,10,1.38,51.6,M,45.8,M,,*69
$GNGGA,104308.00,5215.21313,N,00005.47493,W,1,10,1.38,51.6,M,45.8,M,,*67
$GNGGA,104309.00,5215.21310,N,00005.47494,W,1,10,1.38,51.5,M,45.8,M,,*61
$GNGGA,104310.00,5215.21317,N,00005.47497,W,1,10,1.38,51.5,M,45.8,M,,*6D
$GNGGA,104311.00,5215.21315,N,00005.47497,W,1,10,1.38,51.6,M,45.8,M,,*6D
$GNGGA,104312.00,5215.21319,N,00005.47499,W,1,10,1.38,51.6,M,45.8,M,,*6C
$GNGGA,104313.00,5215.21319,N,00005.47499,W,1,10,1.38,51.6,M,45.8,M,,*6D
$GNGGA,104314.00,5215.21320,N,00005.47496,W,1,10,1.38,51.6,M,45.8,M,,*6F
$GNGGA,104315.00,5215.21324,N,00005.47496,W,1,10,1.38,51.7,M,45.8,M,,*6B
$GNGGA,104316.00,5215.21328,N,00005.47498,W,1,10,1.38,51.8,M,45.8,M,,*65
$GNGGA,104317.00,5215.21333,N,00005.47503,W,1,10,1.38,51.9,M,45.8,M,,*6C
$GNGGA,104318.00,5215.21334,N,00005.47505,W,1,10,1.38,52.0,M,45.8,M,,*68
$GNGGA,104319.00,5215.21326,N,00005.47496,W,1,10,1.38,52.0,M,45.8,M,,*61
$GNGGA,104320.00,5215.21328,N,00005.47502,W,1,10,1.38,52.0,M,45.8,M,,*69
$GNGGA,104321.00,5215.21333,N,00005.47506,W,1,10,1.38,52.1,M,45.8,M,,*67
$GNGGA,104322.00,5215.21335,N,00005.47509,W,1,10,1.38,52.2,M,45.8,M,,*6E
$GNGGA,104323.00,5215.21330,N,00005.47505,W,1,10,1.38,52.3,M,45.8,M,,*67
$GNGGA,104324.00,5215.21326,N,00005.47502,W,1,10,1.38,52.3,M,45.8,M,,*60
$GNGGA,104325.00,5215.21327,N,00005.47502,W,1,10,1.38,52.4,M,45.8,M,,*67
$GNGGA,104326.00,5215.21332,N,00005.47505,W,1,10,1.38,52.4,M,45.8,M,,*67
$GNGGA,104327.00,5215.21345,N,00005.47507,W,1,10,1.38,52.5,M,45.8,M,,*65
$GNGGA,104328.00,5215.21349,N,00005.47505,W,1,10,1.38,52.5,M,45.8,M,,*64
$GNGGA,104329.00,5215.21353,N,00005.47514,W,1,10,1.38,52.5,M,45.8,M,,*6E
$GNGGA,104330.00,5215.21352,N,00005.47522,W,1,10,1.38,52.4,M,45.8,M,,*63
$GNGGA,104331.00,5215.21365,N,00005.47540,W,1,10,1.38,52.4,M,45.8,M,,*62
$GNGGA,104332.00,5215.21374,N,00005.47552,W,1,10,1.38,52.4,M,45.8,M,,*62
$GNGGA,104333.00,5215.21364,N,00005.47537,W,1,10,1.38,52.3,M,45.8,M,,*66
$GNGGA,104334.00,5215.21367,N,00005.47541,W,1,10,1.38,52.4,M,45.8,M,,*64
$GNGGA,104335.00,5215.21365,N,00005.47538,W,1,10,1.38,52.4,M,45.8,M,,*69
$GNGGA,104336.00,5215.21362,N,00005.47539,W,1,10,1.38,52.4,M,45.8,M,,*6C
$GNGGA,104337.00,5215.21363,N,00005.47542,W,1,10,1.38,52.4,M,45.8,M,,*60
$GNGGA,104338.00,5215.21370,N,00005.47550,W,1,10,1.38,52.5,M,45.8,M,,*6F
$GNGGA,104339.00,5215.21376,N,00005.47558,W,1,10,1.38,52.6,M,45.8,M,,*63
$GNGGA,104340.00,5215.21383,N,00005.47563,W,1,10,1.38,52.7,M,45.8,M,,*6E
$GNGGA,104341.00,5215.21394,N,00005.47577,W,1,10,1.38,52.8,M,45.8,M,,*63
$GNGGA,104342.00,5215.21397,N,00005.47588,W,1,10,1.38,53.0,M,45.8,M,,*6A
$GNGGA,104343.00,5215.21417,N,00005.47608,W,1,10,1.38,53.2,M,45.8,M,,*6D
$GNGGA,104344.00,5215.21420,N,00005.47603,W,1,10,1.38,53.2,M,45.8,M,,*65
$GNGGA,104345.00,5215.21425,N,00005.47604,W,1,10,1.38,53.1,M,45.8,M,,*65
$GNGGA,104346.00,5215.21426,N,00005.47604,W,1,10,1.38,53.1,M,45.8,M,,*65
$GNGGA,104347.00,5215.21420,N,00005.47598,W,1,10,1.38,53.0,M,45.8,M,,*65
$GNGGA,104348.00,5215.21419,N,00005.47597,W,1,10,1.38,52.9,M,45.8,M,,*67
$GNGGA,104349.00,5215.21420,N,00005.47599,W,1,10,1.38,52.9,M,45.8,M,,*62
$GNGGA,104350.00,5215.21416,N,00005.47602,W,1,10,1.38,52.9,M,45.8,M,,*6E
$GNGGA,104351.00,5215.21401,N,00005.47600,W,1,10,1.38,52.7,M,45.8,M,,*65
$GNGGA,104352.00,5215.21392,N,00005.47601,W,1,09,1.57,52.5,M,45.8,M,,*69
$GNGGA,104353.00,5215.21394,N,00005.47606,W,1,10,1.38,52.3,M,45.8,M,,*6E
$GNGGA,104354.00,5215.21388,N,00005.47597,W,1,10,1.38,52.3,M,45.8,M,,*6F
$GNGGA,104355.00,5215.21391,N,00005.47598,W,1,10,1.38,52.2,M,45.8,M,,*68
$GNGGA,104356.00,5215.21394,N,00005.47597,W,1,10,1.38,52.2,M,45.8,M,,*61
$GNGGA,104357.00,5215.21391,N,00005.47590,W,1,10,1.38,52.1,M,45.8,M,,*61
$GNGGA,104358.00,5215.21394,N,00005.47591,W,1,10,1.38,52.0,M,45.8,M,,*6B
$GNGGA,104359.00,5215.21397,N,00005.47593,W,1,10,1.38,52.0,M,45.8,M,,*6B
$GNGGA,104400.00,5215.21400,N,00005.47595,W,1,10,1.38,52.0,M,45.8,M,,*6F
$GNGGA,104401.00,5215.21410,N,00005.47598,W,1,10,1.38,52.1,M,45.8,M,,*63
$GNGGA,104402.00,5215.21419,N,00005.47601,W,1,10,1.38,52.1,M,45.8,M,,*6A
$GNGGA,104403.00,5215.21446,N,00005.47617,W,1,10,1.38,52.4,M,45.8,M,,*63
$GNGGA,104404.00,5215.21446,N,00005.47611,W,1,10,1.38,52.4,M,45.8,M,,*62
$GNGGA,104405.00,5215.21437,N,00005.47604,W,1,10,1.38,52.2,M,45.8,M,,*67
$GNGGA,104406.00,5215.21442,N,00005.47606,W,1,10,1.38,52.2,M,45.8,M,,*64
$GNGGA,104407.00,5215.21445,N,00005.47603,W,1,10,1.38,52.1,M,45.8,M,,*64
$GNGGA,104408.00,5215.21444,N,00005.47599,W,1,10,1.38,52.1,M,45.8,M,,*6A
$GNGGA,104409.00,5215.21448,N,00005.47601,W,1,10,1.38,52.1,M,45.8,M,,*65
$GNGGA,104410.00,5215.21456,N,00005.47605,W,1,10,1.38,52.2,M,45.8,M,,*65
$GNGGA,104411.00,5215.21462,N,00005.47604,W,1,10,1.38,52.2,M,45.8,M,,*62
$GNGGA,104412.00,5215.21453,N,00005.47595,W,1,10,1.38,52.2,M,45.8,M,,*68
$GNGGA,104413.00,5215.21446,N,00005.47587,W,1,10,1.38,52.1,M,45.8,M,,*6D
$GNGGA,104414.00,5215.21438,N,00005.47582,W,1,10,1.38,52.0,M,45.8,M,,*67
$GNGGA,104415.00,5215.21424,N,00005.47569,W,1,10,1.38,51.7,M,45.8,M,,*6A
$GNGGA,104416.00,5215.21425,N,00005.47571,W,1,10,1.38,51.7,M,45.8,M,,*61
$GNGGA,104417.00,5215.21431,N,00005.47578,W,1,10,1.38,51.8,M,45.8,M,,*63
$GNGGA,104418.00,5215.21429,N,00005.47577,W,1,10,1.38,51.8,M,45.8,M,,*6A
$GNGGA,104419.00,5215.21427,N,00005.47576,W,1,10,1.38,51.8,M,45.8,M,,*64
$GNGGA,104420.00,5215.21425,N,00005.47577,W,1,10,1.38,51.9,M,45.8,M,,*6C
$GNGGA,104421.00,5215.21412,N,00005.47571,W,1,10,1.38,51.8,M,45.8,M,,*6E
$GNGGA,104422.00,5215.21411,N,00005.47573,W,1,10,1.38,51.8,M,45.8,M,,*6C
$GNGGA,104423.00,5215.21403,N,00005.47569,W,1,10,1.38,51.7,M,45.8,M,,*6A
$GNGGA,104424.00,5215.21385,N,00005.47554,W,1,10,1.38,51.4,M,45.8,M,,*69
$GNGGA,104425.00,5215.21378,N,00005.47545,W,1,10,1.38,51.4,M,45.8,M,,*6A
$GNGGA,104426.00,5215.21361,N,00005.47538,W,1,10,1.38,51.3,M,45.8,M,,*6C
$GNGGA,104427.00,5215.21377,N,00005.47553,W,1,10,1.38,51.3,M,45.8,M,,*67
$GNGGA,104428.00,5215.21392,N,00005.47565,W,1,10,1.39,51.3,M,45.8,M,,*67
$GNGGA,104429.00,5215.21388,N,00005.47562,W,1,10,1.39,51.4,M,45.8,M,,*6D
$GNGGA,104430.00,5215.21392,N,00005.47573,W,1,10,1.39,51.5,M,45.8,M,,*6F
$GNGGA,104431.00,5215.21397,N,00005.47569,W,1,10,1.39,51.6,M,45.8,M,,*63
$GNGGA,104432.00,5215.21398,N,00005.47565,W,1,10,1.39,51.7,M,45.8,M,,*62
$GNGGA,104433.00,5215.21400,N,00005.47562,W,1,10,1.39,51.8,M,45.8,M,,*6D
$GNGGA,104434.00,5215.21404,N,00005.47565,W,1,10,1.39,51.9,M,45.8,M,,*68
$GNGGA,104435.00,5215.21409,N,00005.47568,W,1,10,1.39,51.9,M,45.8,M,,*69
$GNGGA,104436.00,5215.21414,N,00005.47573,W,1,10,1.39,52.0,M,45.8,M,,*66
$GNGGA,104437.00,5215.21412,N,00005.47573,W,1,10,1.39,52.0,M,45.8,M,,*61
$GNGGA,104438.00,5215.21390,N,00005.47559,W,1,10,1.39,51.8,M,45.8,M,,*60
$GNGGA,104439.00,5215.21369,N,00005.47541,W,1,10,1.39,52.0,M,45.8,M,,*65
$GNGGA,104440.00,5215.21378,N,00005.47547,W,1,10,1.39,52.2,M,45.8,M,,*6F
$GNGGA,104441.00,5215.21377,N,00005.47540,W,1,10,1.39,52.2,M,45.8,M,,*66
$GNGGA,104442.00,5215.21384,N,00005.47547,W,1,10,1.39,52.3,M,45.8,M,,*6F
$GNGGA,104443.00,5215.21384,N,00005.47543,W,1,10,1.39,52.4,M,45.8,M,,*6D
$GNGGA,104444.00,5215.21384,N,00005.47543,W,1,10,1.39,52.4,M,45.8,M,,*6A
$GNGGA,104445.00,5215.21389,N,00005.47548,W,1,10,1.39,52.4,M,45.8,M,,*6D
$GNGGA,104446.00,5215.21390,N,00005.47545,W,1,10,1.39,52.4,M,45.8,M,,*6B
$GNGGA,104447.00,5215.21384,N,00005.47537,W,1,10,1.39,52.3,M,45.8,M,,*6D
$GNGGA,104448.00,5215.21380,N,00005.47534,W,1,10,1.39,52.3,M,45.8,M,,*65
$GNGGA,104449.00,5215.21368,N,00005.47520,W,1,10,1.39,52.0,M,45.8,M,,*64
$GNGGA,104450.00,5215.21361,N,00005.47511,W,1,10,1.39,51.9,M,45.8,M,,*6D
$GNGGA,104451.00,5215.21360,N,00005.47514,W,1,10,1.39,51.7,M,45.8,M,,*66
$GNGGA,104452.00,5215.21356,N,00005.47512,W,1,10,1.39,51.7,M,45.8,M,,*66
$GNGGA,104453.00,5215.21357,N,00005.47512,W,1,10,1.39,51.7,M,45.8,M,,*66
$GNGGA,104454.00,5215.21347,N,00005.47508,W,1,10,1.39,51.3,M,45.8,M,,*6F
$GNGGA,104455.00,5215.21347,N,00005.47511,W,1,11,1.22,51.2,M,45.8,M,,*6C
$GNGGA,104456.00,5215.21349,N,00005.47512,W,1,11,1.22,51.2,M,45.8,M,,*62
$GNGGA,104457.00,5215.21355,N,00005.47517,W,1,11,1.22,51.3,M,45.8,M,,*6A
$GNGGA,104458.00,5215.21355,N,00005.47516,W,1,11,1.22,51.3,M,45.8,M,,*64
$GNGGA,104459.00,5215.21345,N,00005.47517,W,1,11,1.22,51.2,M,45.8,M,,*64
$GNGGA,104500.00,5215.21348,N,00005.47517,W,1,11,1.22,51.3,M,45.8,M,,*65
$GNGGA,104501.00,5215.21342,N,00005.47515,W,1,11,1.22,51.2,M,45.8,M,,*6D
$GNGGA,104502.00,5215.21351,N,00005.47520,W,1,11,1.22,51.4,M,45.8,M,,*6C
$GNGGA,104503.00,5215.21353,N,00005.47524,W,1,11,1.22,51.3,M,45.8,M,,*6C
$GNGGA,104504.00,5215.21351,N,00005.47525,W,1,11,1.22,51.0,M,45.8,M,,*6B
$GNGGA,104505.00,5215.21356,N,00005.47526,W,1,11,1.22,50.8,M,45.8,M,,*67
$GNGGA,104506.00,5215.21357,N,00005.47526,W,1,11,1.22,50.8,M,45.8,M,,*65
$GNGGA,104507.00,5215.21362,N,00005.47530,W,1,11,1.22,50.8,M,45.8,M,,*65
$GNGGA,104508.00,5215.21366,N,00005.47534,W,1,11,1.22,50.9,M,45.8,M,,*6B
$GNGGA,104509.00,5215.21360,N,00005.47529,W,1,11,1.22,50.8,M,45.8,M,,*61
$GNGGA,104510.00,5215.21363,N,00005.47541,W,1,11,1.22,50.9,M,45.8,M,,*65
$GNGGA,104511.00,5215.21371,N,00005.47558,W,1,11,1.22,51.0,M,45.8,M,,*67
$GNGGA,104512.00,5215.21368,N,00005.47559,W,1,11,1.22,51.0,M,45.8,M,,*6D
$GNGGA,104513.00,5215.21374,N,00005.47562,W,1,11,1.22,51.1,M,45.8,M,,*68
$GNGGA,104514.00,5215.21379,N,00005.47566,W,1,11,1.22,51.1,M,45.8,M,,*66
$GNGGA,104515.00,5215.21380,N,00005.47568,W,1,11,1.22,51.2,M,45.8,M,,*6C
$GNGGA,104516.00,5215.21384,N,00005.47573,W,1,11,1.22,51.3,M,45.8,M,,*60
$GNGGA,104517.00,5215.21388,N,00005.47576,W,1,11,1.22,51.4,M,45.8,M,,*6F
$GNGGA,104518.00,5215.21393,N,00005.47578,W,1,11,1.22,51.5,M,45.8,M,,*65
$GNGGA,104519.00,5215.21388,N,00005.47574,W,1,11,1.22,51.5,M,45.8,M,,*62
$GNGGA,104520.00,5215.21386,N,00005.47571,W,1,11,1.22,51.6,M,45.8,M,,*60
$GNGGA,104521.00,5215.21388,N,00005.47570,W,1,11,1.21,51.6,M,45.8,M,,*6D
$GNGGA,104522.00,5215.21406,N,00005.47587,W,1,11,1.21,51.9,M,45.8,M,,*68
$GNGGA,104523.00,5215.21399,N,00005.47579,W,1,11,1.21,52.0,M,45.8,M,,*63
$GNGGA,104524.00,5215.21387,N,00005.47567,W,1,11,1.21,51.9,M,45.8,M,,*6E
$GNGGA,104525.00,5215.21399,N,00005.47568,W,1,11,1.21,52.1,M,45.8,M,,*64
$GNGGA,104526.00,5215.21410,N,00005.47570,W,1,11,1.21,52.4,M,45.8,M,,*6D
$GNGGA,104527.00,5215.21418,N,00005.47575,W,1,11,1.21,52.6,M,45.8,M,,*63
$GNGGA,104528.00,5215.21420,N,00005.47571,W,1,11,1.21,52.5,M,45.8,M,,*60
$GNGGA,104529.00,5215.21419,N,00005.47567,W,1,11,1.21,52.6,M,45.8,M,,*6F
$GNGGA,104530.00,5215.21423,N,00005.47570,W,1,11,1.21,52.6,M,45.8,M,,*68
$GNGGA,104531.00,5215.21424,N,00005.47569,W,1,11,1.21,52.8,M,45.8,M,,*68
$GNGGA,104532.00,5215.21421,N,00005.47562,W,1,11,1.21,52.7,M,45.8,M,,*6A
$GNGGA,104533.00,5215.21421,N,00005.47550,W,1,11,1.21,52.7,M,45.8,M,,*6A
$GNGGA,104534.00,5215.21428,N,00005.47555,W,1,11,1.21,52.5,M,45.8,M,,*63
$GNGGA,104535.00,5215.21428,N,00005.47547,W,1,11,1.21,52.6,M,45.8,M,,*62
$GNGGA,104536.00,5215.21429,N,00005.47548,W,1,11,1.21,52.7,M,45.8,M,,*6E
$GNGGA,104537.00,5215.21429,N,00005.47549,W,1,11,1.21,52.8,M,45.8,M,,*61
$GNGGA,104538.00,5215.21426,N,00005.47547,W,1,11,1.21,52.8,M,45.8,M,,*6F
$GNGGA,104539.00,5215.21427,N,00005.47546,W,1,11,1.21,52.7,M,45.8,M,,*61
$GNGGA,104540.00,5215.21428,N,00005.47546,W,1,11,1.21,52.7,M,45.8,M,,*60
$GNGGA,104541.00,5215.21426,N,00005.47542,W,1,11,1.21,52.7,M,45.8,M,,*6B
$GNGGA,104542.00,5215.21428,N,00005.47539,W,1,11,1.21,52.7,M,45.8,M,,*6A
$GNGGA,104543.00,5215.21430,N,00005.47541,W,1,11,1.21,52.6,M,45.8,M,,*6C
$GNGGA,104544.00,5215.21419,N,00005.47540,W,1,11,1.21,52.5,M,45.8,M,,*62
$GNGGA,104545.00,5215.21403,N,00005.47527,W,1,11,1.21,52.4,M,45.8,M,,*68
$GNGGA,104546.00,5215.21405,N,00005.47529,W,1,11,1.21,52.5,M,45.8,M,,*62
$GNGGA,104547.00,5215.21403,N,00005.47522,W,1,11,1.21,52.3,M,45.8,M,,*68
$GNGGA,104548.00,5215.21409,N,00005.47526,W,1,11,1.21,52.3,M,45.8,M,,*69
$GNGGA,104549.00,5215.21411,N,00005.47528,W,1,11,1.21,52.3,M,45.8,M,,*6F
$GNGGA,104550.00,5215.21418,N,00005.47533,W,1,11,1.21,52.4,M,45.8,M,,*63
$GNGGA,104551.00,5215.21421,N,00005.47534,W,1,11,1.21,52.4,M,45.8,M,,*6F
$GNGGA,104552.00,5215.21423,N,00005.47531,W,1,11,1.21,52.4,M,45.8,M,,*6B
$GNGGA,104553.00,5215.21418,N,00005.47527,W,1,11,1.21,52.3,M,45.8,M,,*62
$GNGGA,104554.00,5215.21414,N,00005.47514,W,1,10,1.30,52.3,M,45.8,M,,*68
$GNGGA,104555.00,5215.21415,N,00005.47507,W,1,10,1.30,52.1,M,45.8,M,,*68
$GNGGA,104556.00,5215.21418,N,00005.47508,W,1,11,1.21,52.1,M,45.8,M,,*68
$GNGGA,104557.00,5215.21414,N,00005.47503,W,1,11,1.21,51.9,M,45.8,M,,*65
$GNGGA,104558.00,5215.21421,N,00005.47516,W,1,11,1.21,51.6,M,45.8,M,,*67
$GNGGA,104559.00,5215.21424,N,00005.47514,W,1,11,1.21,51.5,M,45.8,M,,*62
$GNGGA,104600.00,5215.21430,N,00005.47529,W,1,11,1.21,51.6,M,45.8,M,,*65
$GNGGA,104601.00,5215.21441,N,00005.47546,W,1,11,1.21,51.6,M,45.8,M,,*6B
$GNGGA,104602.00,5215.21434,N,00005.47556,W,1,11,1.21,51.5,M,45.8,M,,*68
$GNGGA,104603.00,5215.21433,N,00005.47555,W,1,12,1.11,51.4,M,45.8,M,,*6C
$GNGGA,104604.00,5215.21433,N,00005.47556,W,1,12,1.11,51.4,M,45.8,M,,*68
$GNGGA,104605.00,5215.21432,N,00005.47560,W,1,12,1.11,51.4,M,45.8,M,,*6D
$GNGGA,104606.00,5215.21438,N,00005.47567,W,1,12,1.11,51.1,M,45.8,M,,*66
$GNGGA,104607.00,5215.21426,N,00005.47580,W,1,12,1.11,51.0,M,45.8,M,,*60
$GNGGA,104608.00,5215.21419,N,00005.47579,W,1,12,1.11,51.1,M,45.8,M,,*64
$GNGGA,104609.00,5215.21411,N,00005.47580,W,1,12,1.11,50.9,M,45.8,M,,*62
$GNGGA,104610.00,5215.21416,N,00005.47586,W,1,12,1.11,51.2,M,45.8,M,,*61
$GNGGA,104611.00,5215.21412,N,00005.47583,W,1,12,1.11,51.2,M,45.8,M,,*61
$GNGGA,104612.00,5215.21416,N,00005.47582,W,1,12,1.11,51.2,M,45.8,M,,*67
$GNGGA,104613.00,5215.21418,N,00005.47577,W,1,12,1.11,51.1,M,45.8,M,,*61
$GNGGA,104614.00,5215.21417,N,00005.47573,W,1,12,1.11,51.0,M,45.8,M,,*6C
$GNGGA,104615.00,5215.21417,N,00005.47569,W,1,12,1.11,50.9,M,45.8,M,,*6E
$GNGGA,104616.00,5215.21424,N,00005.47571,W,1,12,1.11,51.0,M,45.8,M,,*6C
$GNGGA,104617.00,5215.21432,N,00005.47582,W,1,12,1.11,50.9,M,45.8,M,,*6E
$GNGGA,104618.00,5215.21438,N,00005.47582,W,1,12,1.11,51.0,M,45.8,M,,*63
$GNGGA,104619.00,5215.21436,N,00005.47580,W,1,12,1.11,51.1,M,45.8,M,,*6F
$GNGGA,104620.00,5215.21439,N,00005.47580,W,1,12,1.11,51.1,M,45.8,M,,*6A
$GNGGA,104621.00,5215.21444,N,00005.47583,W,1,12,1.11,51.1,M,45.8,M,,*62
$GNGGA,104622.00,5215.21447,N,00005.47584,W,1,12,1.11,51.2,M,45.8,M,,*66
$GNGGA,104623.00,5215.21455,N,00005.47586,W,1,12,1.11,51.3,M,45.8,M,,*67
$GNGGA,104624.00,5215.21453,N,00005.47585,W,1,12,1.11,51.2,M,45.8,M,,*64
$GNGGA,104625.00,5215.21455,N,00005.47589,W,1,12,1.11,51.3,M,45.8,M,,*6E
$GNGGA,104626.00,5215.21454,N,00005.47591,W,1,12,1.11,51.3,M,45.8,M,,*65
$GNGGA,104627.00,5215.21458,N,00005.47590,W,1,12,1.11,51.4,M,45.8,M,,*6E
$GNGGA,104628.00,5215.21466,N,00005.47594,W,1,12,1.11,51.4,M,45.8,M,,*68
$GNGGA,104629.00,5215.21494,N,00005.47614,W,1,12,1.11,51.7,M,45.8,M,,*6C
$GNGGA,104630.00,5215.21488,N,00005.47605,W,1,12,1.11,51.8,M,45.8,M,,*66
$GNGGA,104631.00,5215.21484,N,00005.47610,W,1,12,1.11,51.9,M,45.8,M,,*6E
$GNGGA,104632.00,5215.21490,N,00005.47608,W,1,12,1.11,52.0,M,45.8,M,,*6B
$GNGGA,104633.00,5215.21497,N,00005.47619,W,1,12,1.11,52.1,M,45.8,M,,*6C
$GNGGA,104634.00,5215.21505,N,00005.47623,W,1,12,1.11,52.2,M,45.8,M,,*6B
$GNGGA,104635.00,5215.21507,N,00005.47628,W,1,12,1.11,52.1,M,45.8,M,,*60
$GNGGA,104636.00,5215.21506,N,00005.47629,W,1,12,1.11,52.2,M,45.8,M,,*60
$GNGGA,104637.00,5215.21507,N,00005.47635,W,1,12,1.11,52.3,M,45.8,M,,*6C
$GNGGA,104638.00,5215.21511,N,00005.47643,W,1,12,1.11,52.3,M,45.8,M,,*65
$GNGGA,104639.00,5215.21514,N,00005.47656,W,1,12,1.11,52.3,M,45.8,M,,*65
$GNGGA,104640.00,5215.21515,N,00005.47659,W,1,12,1.11,52.2,M,45.8,M,,*64
$GNGGA,104641.00,5215.21506,N,00005.47655,W,1,12,1.11,52.1,M,45.8,M,,*68
$GNGGA,104642.00,5215.21495,N,00005.47649,W,1,12,1.11,52.0,M,45.8,M,,*6C
$GNGGA,104643.00,5215.21493,N,00005.47647,W,1,12,1.11,51.9,M,45.8,M,,*6F
$GNGGA,104644.00,5215.21499,N,00005.47649,W,1,12,1.11,52.0,M,45.8,M,,*66
$GNGGA,104645.00,5215.21506,N,00005.47655,W,1,12,1.11,52.2,M,45.8,M,,*6F
$GNGGA,104646.00,5215.21517,N,00005.47662,W,1,12,1.11,52.3,M,45.8,M,,*69
$GNGGA,104647.00,5215.21516,N,00005.47658,W,1,12,1.11,52.3,M,45.8,M,,*60
$GNGGA,104648.00,5215.21516,N,00005.47657,W,1,12,1.11,52.3,M,45.8,M,,*60
$GNGGA,104649.00,5215.21515,N,00005.47655,W,1,12,1.11,52.3,M,45.8,M,,*60
$GNGGA,104650.00,5215.21507,N,00005.47649,W,1,12,1.11,52.1,M,45.8,M,,*64
$GNGGA,104651.00,5215.21497,N,00005.47639,W,1,12,1.11,51.9,M,45.8,M,,*61
$GNGGA,104652.00,5215.21495,N,00005.47639,W,1,12,1.11,51.7,M,45.8,M,,*6E
$GNGGA,104653.00,5215.21496,N,00005.47644,W,1,12,1.11,51.6,M,45.8,M,,*67
$GNGGA,104654.00,5215.21506,N,00005.47647,W,1,12,1.11,51.8,M,45.8,M,,*65
$GNGGA,104655.00,5215.21509,N,00005.47651,W,1,12,1.11,51.9,M,45.8,M,,*6D
$GNGGA,104656.00,5215.21511,N,00005.47656,W,1,12,1.11,51.9,M,45.8,M,,*60
$GNGGA,104657.00,5215.21511,N,00005.47657,W,1,12,1.11,52.0,M,45.8,M,,*6A
$GNGGA,104658.00,5215.21517,N,00005.47664,W,1,12,1.11,52.2,M,45.8,M,,*61
$GNGGA,104659.00,5215.21523,N,00005.47670,W,1,12,1.11,52.3,M,45.8,M,,*63
$GNGGA,104700.00,5215.21526,N,00005.47670,W,1,12,1.11,52.3,M,45.8,M,,*6B
$GNGGA,104701.00,5215.21513,N,00005.47660,W,1,12,1.11,52.4,M,45.8,M,,*6A
$GNGGA,104702.00,5215.21519,N,00005.47670,W,1,12,1.11,52.4,M,45.8,M,,*62
$GNGGA,104703.00,5215.21523,N,00005.47678,W,1,12,1.11,52.5,M,45.8,M,,*63
$GNGGA,104704.00,5215.21519,N,00005.47672,W,1,12,1.11,52.4,M,45.8,M,,*66
$GNGGA,104705.00,5215.21515,N,00005.47672,W,1,12,1.11,52.2,M,45.8,M,,*6D
$GNGGA,104706.00,5215.21513,N,00005.47667,W,1,12,1.11,52.2,M,45.8,M,,*6C
$GNGGA,104707.00,5215.21515,N,00005.47666,W,1,12,1.11,52.1,M,45.8,M,,*69
$GNGGA,104708.00,5215.21513,N,00005.47663,W,1,12,1.11,52.1,M,45.8,M,,*65
$GNGGA,104709.00,5215.21515,N,00005.47668,W,1,12,1.11,52.1,M,45.8,M,,*69
$GNGGA,104710.00,5215.21516,N,00005.47669,W,1,12,1.11,52.2,M,45.8,M,,*60
$GNGGA,104711.00,5215.21521,N,00005.47673,W,1,12,1.11,52.2,M,45.8,M,,*6E
$GNGGA,104712.00,5215.21516,N,00005.47669,W,1,12,1.11,51.9,M,45.8,M,,*6A
$GNGGA,104713.00,5215.21517,N,00005.47678,W,1,12,1.11,51.9,M,45.8,M,,*6A
$GNGGA,104714.00,5215.21519,N,00005.47686,W,1,12,1.11,51.7,M,45.8,M,,*6C
$GNGGA,104715.00,5215.21514,N,00005.47686,W,1,12,1.11,51.5,M,45.8,M,,*62
$GNGGA,104716.00,5215.21503,N,00005.47678,W,1,12,1.11,51.1,M,45.8,M,,*62
$GNGGA,104717.00,5215.21499,N,00005.47675,W,1,12,1.11,51.0,M,45.8,M,,*6D
$GNGGA,104718.00,5215.21499,N,00005.47676,W,1,12,1.11,50.9,M,45.8,M,,*69
$GNGGA,104719.00,5215.21494,N,00005.47675,W,1,12,1.11,50.7,M,45.8,M,,*68
$GNGGA,104720.00,5215.21496,N,00005.47676,W,1,12,1.11,50.7,M,45.8,M,,*63
$GNGGA,104721.00,5215.21496,N,00005.47678,W,1,12,1.11,50.7,M,45.8,M,,*6C
$GNGGA,104722.00,5215.21491,N,00005.47677,W,1,12,1.11,50.6,M,45.8,M,,*66
$GNGGA,104723.00,5215.21488,N,00005.47674,W,1,12,1.11,50.6,M,45.8,M,,*6C
$GNGGA,104724.00,5215.21481,N,00005.47673,W,1,12,1.11,50.3,M,45.8,M,,*60
$GNGGA,104725.00,5215.21474,N,00005.47666,W,1,12,1.11,50.2,M,45.8,M,,*6E
$GNGGA,104726.00,5215.21477,N,00005.47661,W,1,12,1.11,50.2,M,45.8,M,,*69
$GNGGA,104727.00,5215.21483,N,00005.47656,W,1,12,1.11,50.4,M,45.8,M,,*61
$GNGGA,104728.00,5215.21481,N,00005.47651,W,1,12,1.11,50.4,M,45.8,M,,*6B
$GNGGA,104729.00,5215.21480,N,00005.47659,W,1,12,1.11,50.1,M,45.8,M,,*66
$GNGGA,104730.00,5215.21478,N,00005.47660,W,1,12,1.11,50.0,M,45.8,M,,*62
$GNGGA,104731.00,5215.21474,N,00005.47652,W,1,12,1.11,49.9,M,45.8,M,,*6F
$GNGGA,104732.00,5215.21479,N,00005.47651,W,1,12,1.11,50.0,M,45.8,M,,*63
$GNGGA,104733.00,5215.21479,N,00005.47652,W,1,12,1.11,49.9,M,45.8,M,,*60
$GNGGA,104734.00,5215.21477,N,00005.47654,W,1,12,1.11,49.9,M,45.8,M,,*6F
$GNGGA,104735.00,5215.21467,N,00005.47649,W,1,11,1.34,49.7,M,45.8,M,,*69
$GNGGA,104736.00,5215.21460,N,00005.47642,W,1,12,1.11,49.6,M,45.8,M,,*63
$GNGGA,104737.00,5215.21454,N,00005.47637,W,1,12,1.11,49.6,M,45.8,M,,*67
$GNGGA,104738.00,5215.21451,N,00005.47633,W,1,12,1.11,49.5,M,45.8,M,,*6A
$GNGGA,104739.00,5215.21451,N,00005.47629,W,1,12,1.11,49.6,M,45.8,M,,*63
$GNGGA,104740.00,5215.21456,N,00005.47631,W,1,12,1.11,49.8,M,45.8,M,,*6D
$GNGGA,104741.00,5215.21459,N,00005.47633,W,1,12,1.11,49.8,M,45.8,M,,*61
$GNGGA,104742.00,5215.21457,N,00005.47631,W,1,12,1.11,49.8,M,45.8,M,,*6E
$GNGGA,104743.00,5215.21461,N,00005.47635,W,1,11,1.26,49.8,M,45.8,M,,*69
$GNGGA,104744.00,5215.21475,N,00005.47638,W,1,11,1.26,49.9,M,45.8,M,,*67
$GNGGA,104745.00,5215.21474,N,00005.47630,W,1,11,1.26,50.0,M,45.8,M,,*6E
$GNGGA,104746.00,5215.21466,N,00005.47621,W,1,11,1.34,50.0,M,45.8,M,,*6D
$GNGGA,104747.00,5215.21465,N,00005.47620,W,1,12,1.11,50.1,M,45.8,M,,*6B
$GNGGA,104748.00,5215.21477,N,00005.47610,W,1,12,1.11,50.5,M,45.8,M,,*60
$GNGGA,104749.00,5215.21475,N,00005.47611,W,1,12,1.11,50.5,M,45.8,M,,*62
$GNGGA,104750.00,5215.21472,N,00005.47612,W,1,12,1.11,50.5,M,45.8,M,,*6E
$GNGGA,104751.00,5215.21479,N,00005.47618,W,1,12,1.11,50.6,M,45.8,M,,*6D
$GNGGA,104752.00,5215.21465,N,00005.47615,W,1,12,1.11,50.4,M,45.8,M,,*6C
$GNGGA,104753.00,5215.21471,N,00005.47616,W,1,12,1.11,50.6,M,45.8,M,,*69
$GNGGA,104754.00,5215.21472,N,00005.47615,W,1,12,1.11,50.7,M,45.8,M,,*6F
$GNGGA,104755.00,5215.21467,N,00005.47618,W,1,12,1.11,50.6,M,45.8,M,,*66
$GNGGA,104756.00,5215.21467,N,00005.47615,W,1,12,1.11,50.7,M,45.8,M,,*69
$GNGGA,104757.00,5215.21446,N,00005.47609,W,1,12,1.11,50.6,M,45.8,M,,*67
$GNGGA,104758.00,5215.21443,N,00005.47619,W,1,12,1.11,50.8,M,45.8,M,,*62
$GNGGA,104759.00,5215.21440,N,00005.47615,W,1,12,1.11,50.8,M,45.8,M,,*6C
$GNGGA,104800.00,5215.21432,N,00005.47615,W,1,12,1.11,51.0,M,45.8,M,,*63
$GNGGA,104801.00,5215.21434,N,00005.47608,W,1,12,1.11,51.1,M,45.8,M,,*69
$GNGGA,104802.00,5215.21440,N,00005.47602,W,1,12,1.11,51.2,M,45.8,M,,*60
$GNGGA,104803.00,5215.21439,N,00005.47600,W,1,12,1.11,51.3,M,45.8,M,,*6C
$GNGGA,104804.00,5215.21439,N,00005.47596,W,1,12,1.11,51.3,M,45.8,M,,*67
$GNGGA,104805.00,5215.21438,N,00005.47597,W,1,12,1.11,51.2,M,45.8,M,,*67
$GNGGA,104806.00,5215.21430,N,00005.47593,W,1,12,1.11,51.1,M,45.8,M,,*6B
$GNGGA,104807.00,5215.21426,N,00005.47591,W,1,12,1.11,51.1,M,45.8,M,,*6F
$GNGGA,104808.00,5215.21421,N,00005.47595,W,1,12,1.11,50.9,M,45.8,M,,*6A
$GNGGA,104809.00,5215.21430,N,00005.47611,W,1,12,1.11,50.9,M,45.8,M,,*64
$GNGGA,104810.00,5215.21432,N,00005.47613,W,1,12,1.11,50.9,M,45.8,M,,*6C
$GNGGA,104811.00,5215.21437,N,00005.47615,W,1,12,1.11,51.0,M,45.8,M,,*66
$GNGGA,104812.00,5215.21441,N,00005.47616,W,1,12,1.11,51.0,M,45.8,M,,*67
$GNGGA,104813.00,5215.21447,N,00005.47623,W,1,12,1.11,51.1,M,45.8,M,,*67
$GNGGA,104814.00,5215.21450,N,00005.47627,W,1,12,1.11,51.0,M,45.8,M,,*63
$GNGGA,104815.00,5215.21454,N,00005.47630,W,1,12,1.11,51.0,M,45.8,M,,*60
$GNGGA,104816.00,5215.21447,N,00005.47622,W,1,12,1.11,50.9,M,45.8,M,,*6A
$GNGGA,104817.00,5215.21446,N,00005.47619,W,1,12,1.11,50.8,M,45.8,M,,*63
$GNGGA,104818.00,5215.21447,N,00005.47620,W,1,12,1.11,50.8,M,45.8,M,,*67
$GNGGA,104819.00,5215.21453,N,00005.47623,W,1,12,1.11,50.8,M,45.8,M,,*60
$GNGGA,104820.00,5215.21451,N,00005.47619,W,1,12,1.11,50.6,M,45.8,M,,*6F
$GNGGA,104821.00,5215.21451,N,00005.47616,W,1,12,1.11,50.6,M,45.8,M,,*61
$GNGGA,104822.00,5215.21456,N,00005.47621,W,1,12,1.11,50.7,M,45.8,M,,*60
$GNGGA,104823.00,5215.21458,N,00005.47625,W,1,12,1.11,50.6,M,45.8,M,,*6A
$GNGGA,104824.00,5215.21462,N,00005.47624,W,1,12,1.11,50.6,M,45.8,M,,*65
$GNGGA,104825.00,5215.21462,N,00005.47622,W,1,12,1.11,50.6,M,45.8,M,,*62
$GNGGA,104826.00,5215.21462,N,00005.47623,W,1,12,1.11,50.6,M,45.8,M,,*60
$GNGGA,104827.00,5215.21464,N,00005.47626,W,1,12,1.11,50.8,M,45.8,M,,*6C
$GNGGA,104828.00,5215.21466,N,00005.47629,W,1,12,1.11,50.7,M,45.8,M,,*61
$GNGGA,104829.00,5215.21461,N,00005.47615,W,1,12,1.11,50.6,M,45.8,M,,*69
$GNGGA,104830.00,5215.21465,N,00005.47620,W,1,12,1.11,50.6,M,45.8,M,,*63
$GNGGA,104831.00,5215.21466,N,00005.47622,W,1,12,1.09,50.7,M,45.8,M,,*6B
$GNGGA,104832.00,5215.21468,N,00005.47624,W,1,12,1.09,50.8,M,45.8,M,,*6F
$GNGGA,104833.00,5215.21467,N,00005.47619,W,1,12,1.09,50.8,M,45.8,M,,*6F
$GNGGA,104834.00,5215.21464,N,00005.47616,W,1,12,1.08,50.9,M,45.8,M,,*64
$GNGGA,104835.00,5215.21465,N,00005.47617,W,1,12,1.08,51.0,M,45.8,M,,*6D
$GNGGA,104836.00,5215.21469,N,00005.47621,W,1,12,1.08,51.2,M,45.8,M,,*65
$GNGGA,104837.00,5215.21472,N,00005.47623,W,1,12,1.08,51.3,M,45.8,M,,*6D
$GNGGA,104838.00,5215.21466,N,00005.47618,W,1,12,1.08,51.2,M,45.8,M,,*6E
$GNGGA,104839.00,5215.21462,N,00005.47612,W,1,12,1.08,51.2,M,45.8,M,,*61
$GNGGA,104840.00,5215.21452,N,00005.47606,W,1,12,1.08,51.2,M,45.8,M,,*69
$GNGGA,104841.00,5215.21448,N,00005.47598,W,1,12,1.08,51.2,M,45.8,M,,*67
$GNGGA,104842.00,5215.21456,N,00005.47597,W,1,12,1.08,51.4,M,45.8,M,,*62
$GNGGA,104843.00,5215.21457,N,00005.47599,W,1,12,1.08,51.5,M,45.8,M,,*6D
$GNGGA,104844.00,5215.21458,N,00005.47605,W,1,12,1.08,51.7,M,45.8,M,,*61
$GNGGA,104845.00,5215.21459,N,00005.47612,W,1,12,1.08,51.7,M,45.8,M,,*67
$GNGGA,104846.00,5215.21456,N,00005.47617,W,1,12,1.08,51.7,M,45.8,M,,*6E
$GNGGA,104847.00,5215.21454,N,00005.47618,W,1,12,1.08,51.8,M,45.8,M,,*6D
$GNGGA,104848.00,5215.21451,N,00005.47616,W,1,12,1.08,51.8,M,45.8,M,,*69
$GNGGA,104849.00,5215.21450,N,00005.47614,W,1,12,1.08,51.8,M,45.8,M,,*6B
$GNGGA,104850.00,5215.21448,N,00005.47610,W,1,12,1.08,51.7,M,45.8,M,,*61
$GNGGA,104851.00,5215.21447,N,00005.47611,W,1,12,1.08,51.7,M,45.8,M,,*6E
$GNGGA,104852.00,5215.21454,N,00005.47618,W,1,12,1.08,52.0,M,45.8,M,,*62
$GNGGA,104853.00,5215.21446,N,00005.47608,W,1,12,1.08,52.0,M,45.8,M,,*61
$GNGGA,104854.00,5215.21443,N,00005.47604,W,1,12,1.08,52.0,M,45.8,M,,*6F
$GNGGA,104855.00,5215.21433,N,00005.47590,W,1,12,1.08,51.8,M,45.8,M,,*6C
$GNGGA,104856.00,5215.21424,N,00005.47583,W,1,12,1.08,51.7,M,45.8,M,,*64
$GNGGA,104857.00,5215.21423,N,00005.47578,W,1,12,1.08,51.6,M,45.8,M,,*67
$GNGGA,104858.00,5215.21423,N,00005.47577,W,1,12,1.08,51.7,M,45.8,M,,*66
$GNGGA,104859.00,5215.21422,N,00005.47573,W,1,12,1.08,51.7,M,45.8,M,,*62
$GNGGA,104900.00,5215.21423,N,00005.47571,W,1,12,1.08,51.8,M,45.8,M,,*63
$GNGGA,104901.00,5215.21423,N,00005.47569,W,1,12,1.08,51.9,M,45.8,M,,*6A
$GNGGA,104902.00,5215.21422,N,00005.47570,W,1,12,1.08,51.9,M,45.8,M,,*60
$GNGGA,104903.00,5215.21422,N,00005.47572,W,1,12,1.08,51.8,M,45.8,M,,*62
$GNGGA,104904.00,5215.21428,N,00005.47577,W,1,12,1.08,51.9,M,45.8,M,,*6B
$GNGGA,104905.00,5215.21428,N,00005.47571,W,1,12,1.08,51.8,M,45.8,M,,*6D
$GNGGA,104906.00,5215.21422,N,00005.47561,W,1,12,1.08,51.6,M,45.8,M,,*6B
$GNGGA,104907.00,5215.21423,N,00005.47564,W,1,12,1.01,51.8,M,45.8,M,,*69
$GNGGA,104908.00,5215.21421,N,00005.47566,W,1,12,1.01,51.7,M,45.8,M,,*69
$GNGGA,104909.00,5215.21416,N,00005.47565,W,1,12,1.01,51.5,M,45.8,M,,*6D
$GNGGA,104910.00,5215.21415,N,00005.47568,W,1,12,1.01,51.4,M,45.8,M,,*6A
$GNGGA,104911.00,5215.21411,N,00005.47565,W,1,12,1.08,51.4,M,45.8,M,,*6B
$GNGGA,104912.00,5215.21406,N,00005.47564,W,1,12,1.01,51.3,M,45.8,M,,*61
$GNGGA,104913.00,5215.21409,N,00005.47563,W,1,12,1.08,51.2,M,45.8,M,,*60
$GNGGA,104914.00,5215.21402,N,00005.47554,W,1,12,1.01,51.1,M,45.8,M,,*62
$GNGGA,104915.00,5215.21399,N,00005.47547,W,1,12,1.08,51.0,M,45.8,M,,*6C
$GNGGA,104916.00,5215.21401,N,00005.47545,W,1,12,1.01,51.0,M,45.8,M,,*62
$GNGGA,104917.00,5215.21411,N,00005.47551,W,1,12,1.01,51.4,M,45.8,M,,*63
$GNGGA,104918.00,5215.21412,N,00005.47551,W,1,12,1.01,51.3,M,45.8,M,,*68
$GNGGA,104919.00,5215.21414,N,00005.47553,W,1,12,1.01,51.2,M,45.8,M,,*6C
$GNGGA,104920.00,5215.21416,N,00005.47557,W,1,12,1.01,51.2,M,45.8,M,,*60
$GNGGA,104921.00,5215.21420,N,00005.47559,W,1,12,1.01,51.3,M,45.8,M,,*6B
$GNGGA,104922.00,5215.21423,N,00005.47559,W,1,12,1.01,51.3,M,45.8,M,,*6B
$GNGGA,104923.00,5215.21419,N,00005.47555,W,1,12,1.01,51.3,M,45.8,M,,*6F
$GNGGA,104924.00,5215.21416,N,00005.47553,W,1,12,1.01,51.2,M,45.8,M,,*60
$GNGGA,104925.00,5215.21420,N,00005.47555,W,1,12,1.01,51.5,M,45.8,M,,*65
$GNGGA,104926.00,5215.21410,N,00005.47549,W,1,12,1.01,51.3,M,45.8,M,,*6E
$GNGGA,104927.00,5215.21414,N,00005.47551,W,1,12,1.01,51.4,M,45.8,M,,*65
$GNGGA,104928.00,5215.21417,N,00005.47553,W,1,12,1.01,51.5,M,45.8,M,,*6A
$GNGGA,104929.00,5215.21415,N,00005.47556,W,1,12,1.01,51.4,M,45.8,M,,*6D
$GNGGA,104930.00,5215.21422,N,00005.47559,W,1,12,1.01,51.6,M,45.8,M,,*6C
$GNGGA,104931.00,5215.21417,N,00005.47554,W,1,12,1.01,51.5,M,45.8,M,,*65
$GNGGA,104932.00,5215.21419,N,00005.47556,W,1,12,1.01,51.5,M,45.8,M,,*6A
$GNGGA,104933.00,5215.21420,N,00005.47557,W,1,12,1.01,51.6,M,45.8,M,,*63
$GNGGA,104934.00,5215.21427,N,00005.47562,W,1,12,1.01,51.7,M,45.8,M,,*64
$GNGGA,104935.00,5215.21443,N,00005.47575,W,1,12,1.01,51.9,M,45.8,M,,*6F
$GNGGA,104936.00,5215.21455,N,00005.47585,W,1,12,1.01,52.1,M,45.8,M,,*6F
$GNGGA,104937.00,5215.21452,N,00005.47585,W,1,12,1.01,52.1,M,45.8,M,,*69
$GNGGA,104938.00,5215.21442,N,00005.47579,W,1,12,1.01,51.8,M,45.8,M,,*6E
$GNGGA,104939.00,5215.21442,N,00005.47578,W,1,12,1.01,51.8,M,45.8,M,,*6E
$GNGGA,104940.00,5215.21442,N,00005.47578,W,1,12,1.01,51.8,M,45.8,M,,*60
$GNGGA,104941.00,5215.21440,N,00005.47578,W,1,12,1.01,51.8,M,45.8,M,,*63
$GNGGA,104942.00,5215.21441,N,00005.47576,W,1,12,1.01,51.7,M,45.8,M,,*60
$GNGGA,104943.00,5215.21448,N,00005.47582,W,1,12,1.01,51.8,M,45.8,M,,*6C
$GNGGA,104944.00,5215.21451,N,00005.47584,W,1,12,1.01,51.8,M,45.8,M,,*65
$GNGGA,104945.00,5215.21451,N,00005.47581,W,1,12,1.01,51.8,M,45.8,M,,*61
$GNGGA,104946.00,5215.21449,N,00005.47578,W,1,12,1.01,51.8,M,45.8,M,,*6D
$GNGGA,104947.00,5215.21442,N,00005.47575,W,1,12,1.01,51.7,M,45.8,M,,*65
$GNGGA,104948.00,5215.21443,N,00005.47579,W,1,12,1.01,51.7,M,45.8,M,,*67
$GNGGA,104949.00,5215.21440,N,00005.47577,W,1,12,1.01,51.7,M,45.8,M,,*6B
$GNGGA,104950.00,5215.21436,N,00005.47573,W,1,12,1.01,51.7,M,45.8,M,,*66
$GNGGA,104951.00,5215.21437,N,00005.47571,W,1,12,1.01,51.6,M,45.8,M,,*65
$GNGGA,104952.00,5215.21441,N,00005.47576,W,1,12,1.01,51.6,M,45.8,M,,*60
$GNGGA,104953.00,5215.21443,N,00005.47577,W,1,12,1.01,51.7,M,45.8,M,,*63
$GNGGA,104954.00,5215.21443,N,00005.47578,W,1,12,1.01,51.7,M,45.8,M,,*6B
$GNGGA,104955.00,5215.21441,N,00005.47578,W,1,12,1.01,51.6,M,45.8,M,,*69
$GNGGA,104956.00,5215.21448,N,00005.47582,W,1,12,1.01,51.8,M,45.8,M,,*68
$GNGGA,104957.00,5215.21454,N,00005.47586,W,1,12,1.01,51.9,M,45.8,M,,*61
$GNGGA,104958.00,5215.21459,N,00005.47592,W,1,12,1.01,51.9,M,45.8,M,,*66
$GNGGA,104959.00,5215.21450,N,00005.47588,W,1,12,1.01,51.9,M,45.8,M,,*65
$GNGGA,105000.00,5215.21446,N,00005.47591,W,1,12,1.01,51.8,M,45.8,M,,*6F
$GNGGA,105001.00,5215.21449,N,00005.47595,W,1,12,1.01,51.9,M,45.8,M,,*64
$GNGGA,105002.00,5215.21442,N,00005.47595,W,1,12,1.01,51.9,M,45.8,M,,*6C
$GNGGA,105003.00,5215.21443,N,00005.47599,W,1,12,1.01,51.9,M,45.8,M,,*60
$GNGGA,105004.00,5215.21437,N,00005.47595,W,1,12,1.01,51.9,M,45.8,M,,*68
$GNGGA,105005.00,5215.21433,N,00005.47593,W,1,12,1.01,51.8,M,45.8,M,,*6A
$GNGGA,105006.00,5215.21430,N,00005.47592,W,1,12,1.01,51.9,M,45.8,M,,*6A
$GNGGA,105007.00,5215.21438,N,00005.47599,W,1,12,1.00,52.1,M,45.8,M,,*62
$GNGGA,105008.00,5215.21443,N,00005.47606,W,1,12,1.08,52.2,M,45.8,M,,*6F
$GNGGA,105009.00,5215.21448,N,00005.47612,W,1,12,1.00,52.3,M,45.8,M,,*69
$GNGGA,105010.00,5215.21448,N,00005.47616,W,1,12,1.00,52.3,M,45.8,M,,*65
$GNGGA,105011.00,5215.21441,N,00005.47612,W,1,12,1.00,52.3,M,45.8,M,,*69
$GNGGA,105012.00,5215.21442,N,00005.47613,W,1,12,1.00,52.2,M,45.8,M,,*69
$GNGGA,105013.00,5215.21437,N,00005.47609,W,1,12,1.00,52.2,M,45.8,M,,*61
$GNGGA,105014.00,5215.21436,N,00005.47605,W,1,12,1.00,52.1,M,45.8,M,,*68
$GNGGA,105015.00,5215.21429,N,00005.47602,W,1,12,1.00,52.0,M,45.8,M,,*61
$GNGGA,105016.00,5215.21428,N,00005.47601,W,1,12,1.00,52.0,M,45.8,M,,*60
$GNGGA,105017.00,5215.21428,N,00005.47603,W,1,12,1.00,52.1,M,45.8,M,,*62
$GNGGA,105018.00,5215.21425,N,00005.47597,W,1,12,1.00,52.0,M,45.8,M,,*6F
$GNGGA,105019.00,5215.21419,N,00005.47589,W,1,12,1.00,52.0,M,45.8,M,,*6E
$GNGGA,105020.00,5215.21421,N,00005.47588,W,1,12,1.00,52.0,M,45.8,M,,*6E
$GNGGA,105021.00,5215.21425,N,00005.47591,W,1,12,1.00,52.2,M,45.8,M,,*61
$GNGGA,105022.00,5215.21425,N,00005.47593,W,1,12,1.00,52.2,M,45.8,M,,*60
$GNGGA,105023.00,5215.21419,N,00005.47588,W,1,12,1.00,52.2,M,45.8,M,,*64
$GNGGA,105024.00,5215.21416,N,00005.47589,W,1,12,1.00,52.2,M,45.8,M,,*6D
$GNGGA,105025.00,5215.21416,N,00005.47593,W,1,12,1.00,52.2,M,45.8,M,,*67
$GNGGA,105026.00,5215.21418,N,00005.47596,W,1,12,1.00,52.2,M,45.8,M,,*6F
$GNGGA,105027.00,5215.21421,N,00005.47600,W,1,12,1.00,52.3,M,45.8,M,,*69
$GNGGA,105028.00,5215.21421,N,00005.47600,W,1,12,1.00,52.3,M,45.8,M,,*66
$GNGGA,105029.00,5215.21424,N,00005.47602,W,1,12,1.00,52.3,M,45.8,M,,*60
$GNGGA,105030.00,5215.21428,N,00005.47604,W,1,12,1.00,52.3,M,45.8,M,,*62
$GNGGA,105031.00,5215.21429,N,00005.47606,W,1,12,1.00,52.3,M,45.8,M,,*60
$GNGGA,105032.00,5215.21423,N,00005.47606,W,1,12,1.00,52.1,M,45.8,M,,*6B
$GNGGA,105033.00,5215.21422,N,00005.47602,W,1,12,1.00,52.2,M,45.8,M,,*6C
$GNGGA,105034.00,5215.21421,N,00005.47598,W,1,12,1.00,52.4,M,45.8,M,,*6E
$GNGGA,105035.00,5215.21419,N,00005.47596,W,1,12,1.00,52.4,M,45.8,M,,*6A
$GNGGA,105036.00,5215.21424,N,00005.47601,W,1,12,1.00,52.5,M,45.8,M,,*6B
$GNGGA,105037.00,5215.21423,N,00005.47601,W,1,12,1.00,52.4,M,45.8,M,,*6C
$GNGGA,105038.00,5215.21426,N,00005.47604,W,1,12,1.00,52.6,M,45.8,M,,*61
$GNGGA,105039.00,5215.21423,N,00005.47603,W,1,12,1.00,52.5,M,45.8,M,,*61
$GNGGA,105040.00,5215.21425,N,00005.47603,W,1,12,1.00,52.7,M,45.8,M,,*6B
$GNGGA,105041.00,5215.21427,N,00005.47604,W,1,12,1.00,52.8,M,45.8,M,,*60
$GNGGA,105042.00,5215.21415,N,00005.47599,W,1,12,1.00,52.7,M,45.8,M,,*6A
$GNGGA,105043.00,5215.21411,N,00005.47596,W,1,12,1.00,53.0,M,45.8,M,,*66
$GNGGA,105044.00,5215.21404,N,00005.47593,W,1,12,1.00,52.7,M,45.8,M,,*66
$GNGGA,105045.00,5215.21406,N,00005.47586,W,1,12,1.00,52.7,M,45.8,M,,*61
$GNGGA,105046.00,5215.21412,N,00005.47591,W,1,12,1.00,52.8,M,45.8,M,,*6E
$GNGGA,105047.00,5215.21417,N,00005.47590,W,1,12,1.00,53.0,M,45.8,M,,*62
$GNGGA,105048.00,5215.21424,N,00005.47594,W,1,12,1.00,53.2,M,45.8,M,,*6B
$GNGGA,105049.00,5215.21426,N,00005.47594,W,1,12,1.00,53.2,M,45.8,M,,*68
$GNGGA,105050.00,5215.21430,N,00005.47598,W,1,12,1.00,53.3,M,45.8,M,,*6A
$GNGGA,105051.00,5215.21434,N,00005.47600,W,1,12,1.07,53.4,M,45.8,M,,*6D
$GNGGA,105052.00,5215.21437,N,00005.47601,W,1,12,1.07,53.5,M,45.8,M,,*6D
$GNGGA,105053.00,5215.21443,N,00005.47608,W,1,12,1.07,53.6,M,45.8,M,,*65
$GNGGA,105054.00,5215.21436,N,00005.47608,W,1,12,1.00,53.3,M,45.8,M,,*62
$GNGGA,105055.00,5215.21445,N,00005.47614,W,1,12,1.00,53.7,M,45.8,M,,*6E
$GNGGA,105056.00,5215.21448,N,00005.47616,W,1,12,1.00,53.6,M,45.8,M,,*63
$GNGGA,105057.00,5215.21441,N,00005.47614,W,1,12,1.00,53.5,M,45.8,M,,*6A
$GNGGA,105058.00,5215.21449,N,00005.47618,W,1,12,1.00,53.6,M,45.8,M,,*62
$GNGGA,105059.00,5215.21445,N,00005.47612,W,1,12,1.00,53.6,M,45.8,M,,*65
$GNGGA,105100.00,5215.21444,N,00005.47612,W,1,12,1.00,53.4,M,45.8,M,,*6B
$GNGGA,105101.00,5215.21446,N,00005.47614,W,1,12,1.00,53.5,M,45.8,M,,*6F
$GNGGA,105102.00,5215.21456,N,00005.47619,W,1,12,1.00,53.6,M,45.8,M,,*63
$GNGGA,105103.00,5215.21465,N,00005.47625,W,1,12,1.00,53.7,M,45.8,M,,*6C
$GNGGA,105104.00,5215.21470,N,00005.47629,W,1,12,1.00,53.8,M,45.8,M,,*6C
$GNGGA,105105.00,5215.21477,N,00005.47637,W,1,12,1.00,54.0,M,45.8,M,,*6A
$GNGGA,105106.00,5215.21468,N,00005.47629,W,1,12,1.00,53.9,M,45.8,M,,*66
$GNGGA,105107.00,5215.21467,N,00005.47624,W,1,12,1.00,53.9,M,45.8,M,,*65
$GNGGA,105108.00,5215.21463,N,00005.47621,W,1,12,1.00,53.9,M,45.8,M,,*6B
$GNGGA,105109.00,5215.21459,N,00005.47616,W,1,12,1.00,53.8,M,45.8,M,,*66
$GNGGA,105110.00,5215.21462,N,00005.47619,W,1,12,1.00,53.8,M,45.8,M,,*69
$GNGGA,105111.00,5215.21463,N,00005.47619,W,1,12,1.00,53.7,M,45.8,M,,*66
$GNGGA,105112.00,5215.21465,N,00005.47620,W,1,12,1.00,53.6,M,45.8,M,,*68
$GNGGA,105113.00,5215.21468,N,00005.47621,W,1,12,1.00,53.6,M,45.8,M,,*65
$GNGGA,105114.00,5215.21469,N,00005.47623,W,1,12,1.00,53.6,M,45.8,M,,*61
$GNGGA,105115.00,5215.21463,N,00005.47616,W,1,12,1.00,53.6,M,45.8,M,,*6C
$GNGGA,105116.00,5215.21460,N,00005.47615,W,1,12,1.00,53.6,M,45.8,M,,*6F
$GNGGA,105117.00,5215.21455,N,00005.47612,W,1,12,1.00,53.5,M,45.8,M,,*6C
$GNGGA,105118.00,5215.21458,N,00005.47609,W,1,12,1.00,53.6,M,45.8,M,,*67
$GNGGA,105119.00,5215.21453,N,00005.47608,W,1,12,1.07,53.5,M,45.8,M,,*68
$GNGGA,105120.00,5215.21465,N,00005.47618,W,1,12,1.00,53.6,M,45.8,M,,*62
$GNGGA,105121.00,5215.21467,N,00005.47618,W,1,12,1.00,53.6,M,45.8,M,,*61
$GNGGA,105122.00,5215.21468,N,00005.47619,W,1,12,1.00,53.6,M,45.8,M,,*6C
$GNGGA,105123.00,5215.21463,N,00005.47617,W,1,12,1.00,53.5,M,45.8,M,,*6B
$GNGGA,105124.00,5215.21457,N,00005.47614,W,1,12,1.00,53.4,M,45.8,M,,*69
$GNGGA,105125.00,5215.21464,N,00005.47614,W,1,12,1.07,53.7,M,45.8,M,,*6C
$GNGGA,105126.00,5215.21451,N,00005.47604,W,1,12,1.07,53.4,M,45.8,M,,*6B
$GNGGA,105127.00,5215.21423,N,00005.47582,W,1,12,1.00,52.9,M,45.8,M,,*69
$GNGGA,105128.00,5215.21422,N,00005.47581,W,1,12,1.00,52.8,M,45.8,M,,*65
$GNGGA,105129.00,5215.21420,N,00005.47578,W,1,12,1.00,52.8,M,45.8,M,,*60
$GNGGA,105130.00,5215.21424,N,00005.47580,W,1,12,1.00,52.9,M,45.8,M,,*6A
$GNGGA,105131.00,5215.21428,N,00005.47584,W,1,12,1.00,52.9,M,45.8,M,,*63
$GNGGA,105132.00,5215.21429,N,00005.47585,W,1,12,1.00,52.8,M,45.8,M,,*61
$GNGGA,105133.00,5215.21433,N,00005.47590,W,1,12,1.00,52.9,M,45.8,M,,*6E
$GNGGA,105134.00,5215.21436,N,00005.47593,W,1,12,1.00,53.0,M,45.8,M,,*67
$GNGGA,105135.00,5215.21438,N,00005.47595,W,1,12,1.00,53.1,M,45.8,M,,*6F
$GNGGA,105136.00,5215.21432,N,00005.47591,W,1,12,1.00,53.0,M,45.8,M,,*63
$GNGGA,105137.00,5215.21417,N,00005.47578,W,1,12,0.99,52.7,M,45.8,M,,*65
$GNGGA,105138.00,5215.21407,N,00005.47573,W,1,12,0.99,52.5,M,45.8,M,,*62
$GNGGA,105139.00,5215.21408,N,00005.47570,W,1,12,0.99,52.5,M,45.8,M,,*6F
$GNGGA,105140.00,5215.21413,N,00005.47578,W,1,12,0.99,52.6,M,45.8,M,,*60
$GNGGA,105141.00,5215.21415,N,00005.47581,W,1,12,0.99,52.6,M,45.8,M,,*61
$GNGGA,105142.00,5215.21420,N,00005.47581,W,1,12,0.99,52.8,M,45.8,M,,*6A
$GNGGA,105143.00,5215.21418,N,00005.47574,W,1,12,0.99,52.7,M,45.8,M,,*65
$GNGGA,105144.00,5215.21420,N,00005.47573,W,1,12,0.99,52.9,M,45.8,M,,*60
$GNGGA,105145.00,5215.21418,N,00005.47568,W,1,12,0.99,52.9,M,45.8,M,,*60
$GNGGA,105146.00,5215.21422,N,00005.47572,W,1,12,0.99,52.9,M,45.8,M,,*61
$GNGGA,105147.00,5215.21423,N,00005.47576,W,1,12,0.99,52.9,M,45.8,M,,*65
$GNGGA,105148.00,5215.21431,N,00005.47582,W,1,12,0.99,53.1,M,45.8,M,,*6B
$GNGGA,105149.00,5215.21431,N,00005.47575,W,1,12,0.99,53.1,M,45.8,M,,*62
$GNGGA,105150.00,5215.21433,N,00005.47571,W,1,12,0.99,53.2,M,45.8,M,,*6F
$GNGGA,105151.00,5215.21434,N,00005.47571,W,1,12,0.99,53.2,M,45.8,M,,*69
$GNGGA,105152.00,5215.21431,N,00005.47565,W,1,12,0.99,53.2,M,45.8,M,,*6A
$GNGGA,105153.00,5215.21432,N,00005.47563,W,1,12,0.99,53.2,M,45.8,M,,*6E
$GNGGA,105154.00,5215.21436,N,00005.47563,W,1,12,0.99,53.2,M,45.8,M,,*6D
$GNGGA,105155.00,5215.21432,N,00005.47561,W,1,12,0.99,53.2,M,45.8,M,,*6A
$GNGGA,105156.00,5215.21434,N,00005.47561,W,1,12,0.99,53.2,M,45.8,M,,*6F
$GNGGA,105157.00,5215.21432,N,00005.47558,W,1,12,0.99,53.2,M,45.8,M,,*62
$GNGGA,105158.00,5215.21435,N,00005.47559,W,1,12,0.99,53.2,M,45.8,M,,*6B
$GNGGA,105159.00,5215.21442,N,00005.47565,W,1,12,0.99,53.3,M,45.8,M,,*64
$GNGGA,105200.00,5215.21439,N,00005.47562,W,1,12,0.99,53.5,M,45.8,M,,*66
$GNGGA,105201.00,5215.21439,N,00005.47559,W,1,12,0.99,53.6,M,45.8,M,,*6C
$GNGGA,105202.00,5215.21441,N,00005.47559,W,1,12,0.99,53.9,M,45.8,M,,*6F
$GNGGA,105203.00,5215.21438,N,00005.47555,W,1,12,0.99,53.8,M,45.8,M,,*6D
$GNGGA,105204.00,5215.21439,N,00005.47552,W,1,12,0.99,53.9,M,45.8,M,,*6D
$GNGGA,105205.00,5215.21439,N,00005.47546,W,1,12,0.99,53.9,M,45.8,M,,*69
$GNGGA,105206.00,5215.21443,N,00005.47547,W,1,12,0.99,54.0,M,45.8,M,,*68
$GNGGA,105207.00,5215.21445,N,00005.47549,W,1,12,0.99,54.0,M,45.8,M,,*61
$GNGGA,105208.00,5215.21443,N,00005.47549,W,1,12,0.99,54.0,M,45.8,M,,*68
$GNGGA,105209.00,5215.21442,N,00005.47548,W,1,12,0.99,54.0,M,45.8,M,,*69
