$GNGGA,134046.00,,,,,0,00,99.99,,,,,,*7C
$GNGGA,134047.00,,,,,0,00,99.99,,,,,,*7D
$GNGGA,134048.00,,,,,0,00,99.99,,,,,,*72
$GNGGA,134049.00,,,,,0,00,99.99,,,,,,*73
$GNGGA,134050.00,,,,,0,00,99.99,,,,,,*7B
$GNGGA,134051.00,,,,,0,00,99.99,,,,,,*7A
$GNGGA,134052.00,,,,,0,00,99.99,,,,,,*79
$GNGGA,134053.00,,,,,0,00,99.99,,,,,,*78
$GNGGA,134054.00,,,,,0,00,99.99,,,,,,*7F
$GNGGA,134055.00,,,,,0,00,99.99,,,,,,*7E
$GNGGA,134056.00,,,,,0,00,99.99,,,,,,*7D
$GNGGA,134057.00,,,,,0,00,99.99,,,,,,*7C
$GNGGA,134058.00,,,,,0,00,99.99,,,,,,*73
$GNGGA,134059.00,,,,,0,00,99.99,,,,,,*72
$GNGGA,134100.00,,,,,0,00,99.99,,,,,,*7F
$GNGGA,134101.00,,,,,0,00,99.99,,,,,,*7E
$GNGGA,134102.00,,,,,0,00,99.99,,,,,,*7D
$GNGGA,134103.00,,,,,0,00,99.99,,,,,,*7C
$GNGGA,134104.00,,,,,0,00,99.99,,,,,,*7B
$GNGGA,134105.00,,,,,0,00,99.99,,,,,,*7A
$GNGGA,134106.00,,,,,0,00,99.99,,,,,,*79
$GNGGA,134107.00,,,,,0,00,99.99,,,,,,*78
$GNGGA,134108.00,,,,,0,00,99.99,,,,,,*77
$GNGGA,134109.00,,,,,0,00,99.99,,,,,,*76
$GNGGA,134110.00,,,,,0,00,99.99,,,,,,*7E
$GNGGA,134111.00,,,,,0,00,99.99,,,,,,*7F
$GNGGA,134112.00,,,,,0,00,99.99,,,,,,*7C
$GNGGA,134111.00,,,,,0,00,99.99,,,,,,*7F
$GNGGA,134112.00,,,,,0,00,99.99,,,,,,*7C
$GNGGA,134113.00,,,,,0,00,99.99,,,,,,*7D
$GNGGA,134114.00,,,,,0,00,99.99,,,,,,*7A
$GNGGA,134115.00,,,,,0,00,99.99,,,,,,*7B
$GNGGA,134116.00,,,,,0,00,99.99,,,,,,*78
$GNGGA,134117.00,,,,,0,00,99.99,,,,,,*79
$GNGGA,134118.00,,,,,0,00,99.99,,,,,,*76
$GNGGA,134119.00,,,,,0,00,99.99,,,,,,*77
$GNGGA,134120.00,,,,,0,00,99.99,,,,,,*7D
$GNGGA,134121.00,,,,,0,00,99.99,,,,,,*7C
$GNGGA,134122.00,,,,,0,00,99.99,,,,,,*7F
$GNGGA,134123.00,,,,,0,00,99.99,,,,,,*7E
$GNGGA,134124.00,,,,,0,00,99.99,,,,,,*79
$GNGGA,134125.00,,,,,0,00,99.99,,,,,,*78
$GNGGA,134126.00,,,,,0,00,99.99,,,,,,*7B
$GNGGA,134127.00,,,,,0,00,99.99,,,,,,*7A
$GNGGA,134128.00,,,,,0,00,99.99,,,,,,*75
$GNGGA,134129.00,,,,,0,00,99.99,,,,,,*74
$GNGGA,134130.00,,,,,0,00,99.99,,,,,,*7C
$GNGGA,134131.00,,,,,0,00,99.99,,,,,,*7D
$GNGGA,134132.00,,,,,0,00,99.99,,,,,,*7E
$GNGGA,134133.00,,,,,0,00,99.99,,,,,,*7F
$GNGGA,134134.00,,,,,0,00,99.99,,,,,,*78
$GNGGA,134135.00,,,,,0,00,99.99,,,,,,*79
$GNGGA,134135.99,,,,,0,00,99.99,,,,,,*79
$GNGGA,134137.00,,,,,0,00,99.99,,,,,,*7B
$GNGGA,134138.00,,,,,0,00,99.99,,,,,,*74
$GNGGA,134139.00,,,,,0,00,99.99,,,,,,*75
$GNGGA,134140.00,,,,,0,00,99.99,,,,,,*7B
$GNGGA,134141.00,,,,,0,00,99.99,,,,,,*7A
$GNGGA,134142.00,,,,,0,00,99.99,,,,,,*79
$GNGGA,134143.00,,,,,0,00,99.99,,,,,,*78
$GNGGA,134144.00,,,,,0,00,99.99,,,,,,*7F
$GNGGA,134145.00,,,,,0,00,99.99,,,,,,*7E
$GNGGA,134146.00,,,,,0,00,99.99,,,,,,*7D
$GNGGA,134147.00,,,,,0,00,99.99,,,,,,*7C
$GNGGA,134148.00,,,,,0,04,3.75,,,,,,*46
$GNGGA,134149.00,,,,,0,04,3.75,,,,,,*47
$GNGGA,134150.00,,,,,0,04,3.75,,,,,,*4F
$GNGGA,134151.00,,,,,0,04,3.75,,,,,,*4E
$GNGGA,134152.00,,,,,0,04,3.75,,,,,,*4D
$GNGGA,134153.00,,,,,0,04,3.75,,,,,,*4C
$GNGGA,134154.00,,,,,0,04,3.75,,,,,,*4B
$GNGGA,134155.00,,,,,0,04,3.75,,,,,,*4A
$GNGGA,134156.00,,,,,0,04,3.75,,,,,,*49
$GNGGA,134157.00,,,,,0,04,3.75,,,,,,*48
$GNGGA,134158.00,,,,,0,04,3.75,,,,,,*47
$GNGGA,134159.00,,,,,0,04,3.74,,,,,,*47
$GNGGA,134200.00,,,,,0,04,3.74,,,,,,*48
$GNGGA,134201.00,,,,,0,04,3.74,,,,,,*49
$GNGGA,134202.00,,,,,0,04,3.74,,,,,,*4A
$GNGGA,134203.00,,,,,0,04,3.74,,,,,,*4B
$GNGGA,134204.00,,,,,0,04,3.74,,,,,,*4C
$GNGGA,134205.00,,,,,0,04,3.74,,,,,,*4D
$GNGGA,134206.00,,,,,0,04,3.74,,,,,,*4E
$GNGGA,134207.00,,,,,0,04,3.74,,,,,,*4F
$GNGGA,134208.00,,,,,0,04,3.74,,,,,,*40
$GNGGA,134209.00,,,,,0,05,2.43,,,,,,*45
$GNGGA,134210.00,,,,,0,05,2.42,,,,,,*4C
$GNGGA,134211.00,,,,,0,04,3.78,,,,,,*44
$GNGGA,134212.00,,,,,0,04,3.77,,,,,,*48
$GNGGA,134213.00,,,,,0,04,3.77,,,,,,*49
$GNGGA,134214.00,,,,,0,04,3.76,,,,,,*4F
$GNGGA,134215.00,5157.01258,N,00232.67540,W,1,04,3.76,105.1,M,48.6,M,,*52
$GNGGA,134216.00,,,,,0,04,3.76,,,,,,*4D
$GNGGA,134217.00,5157.01315,N,00232.67531,W,1,04,3.75,101.6,M,48.6,M,,*5E
$GNGGA,134218.00,,,,,0,04,3.75,,,,,,*40
$GNGGA,134219.00,5157.01370,N,00232.67532,W,1,04,3.74,98.9,M,48.6,M,,*6F
$GNGGA,134220.00,,,,,0,04,3.74,,,,,,*4A
$GNGGA,134221.00,5157.01372,N,00232.67496,W,1,04,3.74,95.8,M,48.6,M,,*65
$GNGGA,134222.00,,,,,0,04,3.73,,,,,,*4F
$GNGGA,134223.00,5157.01345,N,00232.67475,W,1,04,3.73,100.0,M,48.6,M,,*5C
$GNGGA,134224.00,,,,,0,04,3.73,,,,,,*49
$GNGGA,134225.00,5157.01385,N,00232.67403,W,1,04,3.72,100.9,M,48.6,M,,*5F
$GNGGA,134226.00,,,,,0,04,3.72,,,,,,*4A
$GNGGA,134227.00,5157.01413,N,00232.67449,W,1,04,3.71,95.5,M,48.6,M,,*69
$GNGGA,134228.00,,,,,0,04,3.71,,,,,,*47
$GNGGA,134229.00,5157.01384,N,00232.67375,W,1,04,3.71,93.7,M,48.6,M,,*62
$GNGGA,134230.00,,,,,0,04,3.70,,,,,,*4F
$GNGGA,134231.00,5157.01356,N,00232.67424,W,1,04,3.70,94.3,M,48.6,M,,*65
$GNGGA,134232.00,,,,,0,04,3.70,,,,,,*4D
$GNGGA,134233.00,5157.01389,N,00232.67484,W,1,04,3.69,93.2,M,48.6,M,,*61
$GNGGA,134234.00,,,,,0,04,3.69,,,,,,*43
$GNGGA,134235.00,5157.01393,N,00232.67513,W,1,04,3.68,92.3,M,48.6,M,,*62
$GNGGA,134236.00,,,,,0,04,3.68,,,,,,*40
$GNGGA,134237.00,5157.01390,N,00232.67459,W,1,04,3.68,88.2,M,48.6,M,,*66
$GNGGA,134238.00,,,,,0,04,3.67,,,,,,*41
$GNGGA,134239.00,5157.01052,N,00232.67664,W,1,05,1.93,121.4,M,48.6,M,,*5A
$GNGGA,134240.00,5157.01070,N,00232.67697,W,1,06,1.55,121.3,M,48.6,M,,*56
$GNGGA,134241.00,5157.01088,N,00232.67718,W,1,06,1.55,122.7,M,48.6,M,,*51
$GNGGA,134242.00,5157.01099,N,00232.67750,W,1,06,1.55,122.1,M,48.6,M,,*58
$GNGGA,134243.00,5157.01110,N,00232.67761,W,1,06,1.55,122.5,M,48.6,M,,*5F
$GNGGA,134244.00,5157.01128,N,00232.67783,W,1,06,1.55,122.3,M,48.6,M,,*59
$GNGGA,134245.00,5157.01118,N,00232.67795,W,1,06,1.55,122.7,M,48.6,M,,*58
$GNGGA,134246.00,5157.01121,N,00232.67857,W,1,06,1.55,123.5,M,48.6,M,,*53
$GNGGA,134247.00,5157.01107,N,00232.67898,W,1,06,1.55,126.1,M,48.6,M,,*54
$GNGGA,134248.00,5157.01121,N,00232.67893,W,1,06,1.55,127.1,M,48.6,M,,*55
$GNGGA,134249.00,5157.01122,N,00232.67865,W,1,06,1.55,127.8,M,48.6,M,,*57
$GNGGA,134250.00,5157.01093,N,00232.67876,W,1,06,1.55,128.8,M,48.6,M,,*59
$GNGGA,134251.00,5157.01074,N,00232.67842,W,1,06,1.55,128.2,M,48.6,M,,*5C
$GNGGA,134252.00,5157.01076,N,00232.67831,W,1,06,1.54,128.9,M,48.6,M,,*53
$GNGGA,134253.00,5157.01065,N,00232.67807,W,1,06,1.54,128.8,M,48.6,M,,*54
$GNGGA,134254.00,5157.01070,N,00232.67782,W,1,06,1.54,128.6,M,48.6,M,,*5B
$GNGGA,134255.00,5157.01072,N,00232.67766,W,1,06,1.54,128.5,M,48.6,M,,*51
$GNGGA,134256.00,5157.01069,N,00232.67746,W,1,06,1.54,128.3,M,48.6,M,,*5C
$GNGGA,134257.00,5157.01059,N,00232.67713,W,1,06,1.54,127.7,M,48.6,M,,*55
$GNGGA,134258.00,5157.01047,N,00232.67700,W,1,06,1.54,127.4,M,48.6,M,,*54
$GNGGA,134259.00,5157.01029,N,00232.67671,W,1,06,1.54,128.0,M,48.6,M,,*51
$GNGGA,134300.00,5157.01017,N,00232.67642,W,1,06,1.54,127.8,M,48.6,M,,*56
$GNGGA,134301.00,5157.01013,N,00232.67611,W,1,06,1.54,127.3,M,48.6,M,,*5E
$GNGGA,134302.00,5157.01030,N,00232.67585,W,1,06,1.54,127.9,M,48.6,M,,*58
$GNGGA,134303.00,5157.01046,N,00232.67583,W,1,06,1.54,127.6,M,48.6,M,,*51
$GNGGA,134304.00,5157.01060,N,00232.67588,W,1,06,1.54,127.6,M,48.6,M,,*59
$GNGGA,134305.00,5157.01071,N,00232.67588,W,1,06,1.54,127.7,M,48.6,M,,*59
$GNGGA,134306.00,5157.01080,N,00232.67590,W,1,06,1.54,127.8,M,48.6,M,,*52
$GNGGA,134307.00,5157.01085,N,00232.67590,W,1,06,1.54,127.9,M,48.6,M,,*57
$GNGGA,134308.00,5157.01085,N,00232.67595,W,1,06,1.54,128.0,M,48.6,M,,*5B
$GNGGA,134309.00,5157.01085,N,00232.67597,W,1,07,1.32,128.0,M,48.6,M,,*59
$GNGGA,134310.00,5157.01088,N,00232.67592,W,1,07,1.32,127.9,M,48.6,M,,*5F
$GNGGA,134311.00,5157.01093,N,00232.67591,W,1,07,1.32,128.0,M,48.6,M,,*51
$GNGGA,134312.00,5157.01102,N,00232.67590,W,1,07,1.32,127.9,M,48.6,M,,*5C
$GNGGA,134313.00,5157.01104,N,00232.67587,W,1,07,1.32,128.0,M,48.6,M,,*5B
$GNGGA,134314.00,5157.01102,N,00232.67599,W,1,07,1.32,128.0,M,48.6,M,,*55
$GNGGA,134315.00,5157.01103,N,00232.67608,W,1,07,1.32,128.3,M,48.6,M,,*5D
$GNGGA,134316.00,5157.01105,N,00232.67621,W,1,07,1.32,128.4,M,48.6,M,,*54
$GNGGA,134317.00,5157.01106,N,00232.67630,W,1,07,1.32,128.5,M,48.6,M,,*57
$GNGGA,134318.00,5157.01108,N,00232.67638,W,1,07,1.32,128.6,M,48.6,M,,*5D
$GNGGA,134319.00,5157.01117,N,00232.67651,W,1,08,1.28,129.4,M,48.6,M,,*5A
$GNGGA,134320.00,5157.01129,N,00232.67664,W,1,08,1.28,130.6,M,48.6,M,,*51
$GNGGA,134321.00,5157.01166,N,00232.67698,W,1,08,1.28,132.7,M,48.6,M,,*5B
$GNGGA,134322.00,5157.01174,N,00232.67712,W,1,08,1.28,132.8,M,48.6,M,,*57
$GNGGA,134323.00,5157.01173,N,00232.67716,W,1,08,1.28,133.0,M,48.6,M,,*5C
$GNGGA,134324.00,5157.01173,N,00232.67717,W,1,08,1.28,132.9,M,48.6,M,,*52
$GNGGA,134325.00,5157.01180,N,00232.67731,W,1,08,1.28,133.3,M,48.6,M,,*50
$GNGGA,134326.00,5157.01189,N,00232.67739,W,1,08,1.28,133.3,M,48.6,M,,*52
$GNGGA,134327.00,5157.01198,N,00232.67747,W,1,08,1.28,133.5,M,48.6,M,,*5C
$GNGGA,134328.00,5157.01207,N,00232.67757,W,1,08,1.28,133.6,M,48.6,M,,*54
$GNGGA,134329.00,5157.01214,N,00232.67758,W,1,08,1.28,133.8,M,48.6,M,,*56
$GNGGA,134330.00,5157.01222,N,00232.67763,W,1,08,1.28,134.1,M,48.6,M,,*5D
$GNGGA,134331.00,5157.01227,N,00232.67767,W,1,08,1.28,134.1,M,48.6,M,,*5D
$GNGGA,134332.00,5157.01224,N,00232.67783,W,1,08,1.28,134.3,M,48.6,M,,*55
$GNGGA,134333.00,5157.01222,N,00232.67786,W,1,08,1.28,134.2,M,48.6,M,,*56
$GNGGA,134334.00,5157.01229,N,00232.67777,W,1,08,1.28,134.4,M,48.6,M,,*52
$GNGGA,134335.00,5157.01229,N,00232.67772,W,1,08,1.28,134.4,M,48.6,M,,*56
$GNGGA,134336.00,5157.01231,N,00232.67775,W,1,08,1.28,134.6,M,48.6,M,,*59
$GNGGA,134337.00,5157.01232,N,00232.67776,W,1,08,1.28,135.0,M,48.6,M,,*5F
$GNGGA,134338.00,5157.01231,N,00232.67782,W,1,08,1.28,135.1,M,48.6,M,,*59
$GNGGA,134339.00,5157.01229,N,00232.67790,W,1,08,1.28,135.2,M,48.6,M,,*51
$GNGGA,134340.00,5157.01230,N,00232.67796,W,1,08,1.28,135.2,M,48.6,M,,*51
$GNGGA,134341.00,5157.01231,N,00232.67799,W,1,08,1.28,135.3,M,48.6,M,,*5F
$GNGGA,134342.00,5157.01234,N,00232.67800,W,1,08,1.28,135.4,M,48.6,M,,*51
$GNGGA,134343.00,5157.01235,N,00232.67797,W,1,08,1.28,135.3,M,48.6,M,,*57
$GNGGA,134344.00,5157.01229,N,00232.67791,W,1,08,1.28,134.9,M,48.6,M,,*50
$GNGGA,134345.00,5157.01226,N,00232.67779,W,1,08,1.28,134.3,M,48.6,M,,*52
$GNGGA,134346.00,5157.01226,N,00232.67778,W,1,08,1.28,134.2,M,48.6,M,,*51
$GNGGA,134347.00,5157.01224,N,00232.67768,W,1,08,1.28,134.2,M,48.6,M,,*53
$GNGGA,134348.00,5157.01225,N,00232.67771,W,1,08,1.28,134.4,M,48.6,M,,*53
$GNGGA,134349.00,5157.01230,N,00232.67779,W,1,10,1.00,134.6,M,48.6,M,,*5F
$GNGGA,134350.00,5157.01231,N,00232.67784,W,1,10,1.00,134.7,M,48.6,M,,*55
$GNGGA,134351.00,5157.01234,N,00232.67792,W,1,10,1.00,134.7,M,48.6,M,,*56
$GNGGA,134352.00,5157.01234,N,00232.67790,W,1,10,1.00,134.7,M,48.6,M,,*57
$GNGGA,134353.00,5157.01236,N,00232.67791,W,1,10,1.00,134.7,M,48.6,M,,*55
$GNGGA,134354.00,5157.01238,N,00232.67796,W,1,10,1.00,134.9,M,48.6,M,,*55
$GNGGA,134355.00,5157.01251,N,00232.67793,W,1,10,1.00,135.5,M,48.6,M,,*53
$GNGGA,134356.00,5157.01258,N,00232.67805,W,1,10,1.00,135.4,M,48.6,M,,*58
$GNGGA,134357.00,5157.01263,N,00232.67811,W,1,10,1.00,135.6,M,48.6,M,,*56
$GNGGA,134358.00,5157.01266,N,00232.67821,W,1,10,1.00,135.6,M,48.6,M,,*5F
$GNGGA,134359.00,5157.01269,N,00232.67820,W,1,10,1.00,135.9,M,48.6,M,,*5F
$GNGGA,134400.00,5157.01266,N,00232.67820,W,1,10,1.00,135.9,M,48.6,M,,*5B
$GNGGA,134401.00,5157.01265,N,00232.67818,W,1,10,1.00,136.1,M,48.6,M,,*59
$GNGGA,134402.00,5157.01265,N,00232.67818,W,1,10,1.00,136.3,M,48.6,M,,*58
$GNGGA,134403.00,5157.01265,N,00232.67824,W,1,10,1.00,136.2,M,48.6,M,,*57
$GNGGA,134404.00,5157.01266,N,00232.67829,W,1,10,1.00,136.1,M,48.6,M,,*5D
$GNGGA,134405.00,5157.01262,N,00232.67829,W,1,10,1.00,136.3,M,48.6,M,,*5A
$GNGGA,134406.00,5157.01260,N,00232.67824,W,1,10,1.00,136.5,M,48.6,M,,*50
$GNGGA,134407.00,5157.01267,N,00232.67825,W,1,10,1.00,136.7,M,48.6,M,,*55
$GNGGA,134408.00,5157.01274,N,00232.67833,W,1,10,1.00,136.8,M,48.6,M,,*50
$GNGGA,134409.00,5157.01274,N,00232.67838,W,1,10,1.00,136.8,M,48.6,M,,*5A
$GNGGA,134410.00,5157.01277,N,00232.67836,W,1,10,1.00,136.9,M,48.6,M,,*5E
$GNGGA,134411.00,5157.01280,N,00232.67834,W,1,10,1.00,137.0,M,48.6,M,,*5D
$GNGGA,134412.00,5157.01284,N,00232.67833,W,1,10,1.00,137.2,M,48.6,M,,*5F
$GNGGA,134413.00,5157.01287,N,00232.67832,W,1,10,1.00,137.2,M,48.6,M,,*5C
$GNGGA,134414.00,5157.01287,N,00232.67828,W,1,09,1.01,137.1,M,48.6,M,,*5A
$GNGGA,134415.00,5157.01284,N,00232.67826,W,1,09,1.01,136.9,M,48.6,M,,*5F
$GNGGA,134416.00,5157.01299,N,00232.67891,W,1,09,1.01,136.7,M,48.6,M,,*52
$GNGGA,134417.00,5157.01295,N,00232.67944,W,1,10,1.00,136.1,M,48.6,M,,*59
$GNGGA,134418.00,5157.01301,N,00232.67920,W,1,10,1.00,136.5,M,48.6,M,,*5C
$GNGGA,134419.00,5157.01297,N,00232.67899,W,1,10,1.00,136.4,M,48.6,M,,*51
$GNGGA,134420.00,5157.01294,N,00232.67887,W,1,10,1.00,136.4,M,48.6,M,,*57
$GNGGA,134421.00,5157.01302,N,00232.67885,W,1,10,1.00,136.6,M,48.6,M,,*58
$GNGGA,134422.00,5157.01308,N,00232.67882,W,1,10,1.00,136.9,M,48.6,M,,*59
$GNGGA,134423.00,5157.01309,N,00232.67881,W,1,10,1.01,136.8,M,48.6,M,,*5A
$GNGGA,134424.00,5157.01311,N,00232.67885,W,1,10,1.00,137.0,M,48.6,M,,*58
$GNGGA,134425.00,5157.01320,N,00232.67882,W,1,09,1.01,137.4,M,48.6,M,,*51
$GNGGA,134426.00,5157.01325,N,00232.67881,W,1,09,1.01,137.6,M,48.6,M,,*56
$GNGGA,134427.00,5157.01328,N,00232.67881,W,1,09,1.01,137.7,M,48.6,M,,*5B
$GNGGA,134428.00,5157.01328,N,00232.67880,W,1,10,1.01,137.7,M,48.6,M,,*5D
$GNGGA,134429.00,5157.01329,N,00232.67876,W,1,10,1.01,137.8,M,48.6,M,,*5B
$GNGGA,134430.00,5157.01333,N,00232.67881,W,1,10,1.01,137.9,M,48.6,M,,*51
$GNGGA,134431.00,5157.01335,N,00232.67879,W,1,10,1.01,138.0,M,48.6,M,,*57
$GNGGA,134432.00,5157.01337,N,00232.67877,W,1,10,1.01,138.1,M,48.6,M,,*59
$GNGGA,134433.00,5157.01318,N,00232.67884,W,1,10,1.01,137.5,M,48.6,M,,*52
$GNGGA,134434.00,5157.01306,N,00232.67893,W,1,10,1.01,137.0,M,48.6,M,,*59
$GNGGA,134435.00,5157.01307,N,00232.67910,W,1,10,1.01,136.8,M,48.6,M,,*5A
$GNGGA,134436.00,5157.01302,N,00232.67928,W,1,10,1.01,136.7,M,48.6,M,,*58
$GNGGA,134437.00,5157.01282,N,00232.67932,W,1,10,1.01,136.2,M,48.6,M,,*5E
$GNGGA,134438.00,5157.01282,N,00232.67929,W,1,10,1.01,136.3,M,48.6,M,,*5A
$GNGGA,134439.00,5157.01274,N,00232.67923,W,1,10,1.01,136.2,M,48.6,M,,*59
$GNGGA,134440.00,5157.01277,N,00232.67924,W,1,10,1.01,136.5,M,48.6,M,,*54
$GNGGA,134441.00,5157.01277,N,00232.67924,W,1,10,1.01,136.5,M,48.6,M,,*55
$GNGGA,134442.00,5157.01278,N,00232.67953,W,1,10,1.01,136.1,M,48.6,M,,*5D
$GNGGA,134443.00,5157.01280,N,00232.67980,W,1,10,1.01,135.8,M,48.6,M,,*5F
$GNGGA,134444.00,5157.01281,N,00232.67984,W,1,10,1.01,136.0,M,48.6,M,,*56
$GNGGA,134445.00,5157.01280,N,00232.67986,W,1,10,1.01,136.1,M,48.6,M,,*55
$GNGGA,134446.00,5157.01280,N,00232.67986,W,1,10,1.01,136.2,M,48.6,M,,*55
$GNGGA,134447.00,5157.01284,N,00232.67984,W,1,10,1.01,136.4,M,48.6,M,,*54
$GNGGA,134448.00,5157.01282,N,00232.67992,W,1,10,1.01,136.2,M,48.6,M,,*5C
$GNGGA,134449.00,5157.01284,N,00232.68005,W,1,10,1.01,136.2,M,48.6,M,,*53
$GNGGA,134450.00,5157.01280,N,00232.68013,W,1,10,1.01,135.9,M,48.6,M,,*50
$GNGGA,134451.00,5157.01285,N,00232.68013,W,1,10,1.01,135.9,M,48.6,M,,*54
$GNGGA,134452.00,5157.01289,N,00232.68040,W,1,10,1.01,135.2,M,48.6,M,,*56
$GNGGA,134453.00,5157.01297,N,00232.68061,W,1,10,1.01,134.8,M,48.6,M,,*50
$GNGGA,134454.00,5157.01302,N,00232.68057,W,1,10,1.01,134.9,M,48.6,M,,*5E
$GNGGA,134455.00,5157.01310,N,00232.68052,W,1,10,1.01,135.1,M,48.6,M,,*50
$GNGGA,134456.00,5157.01317,N,00232.68053,W,1,10,1.01,135.1,M,48.6,M,,*55
$GNGGA,134457.00,5157.01323,N,00232.68057,W,1,10,1.01,135.1,M,48.6,M,,*57
$GNGGA,134458.00,5157.01326,N,00232.68061,W,1,10,1.01,135.0,M,48.6,M,,*59
$GNGGA,134459.00,5157.01316,N,00232.68059,W,1,10,1.01,134.5,M,48.6,M,,*54
$GNGGA,134500.00,5157.01306,N,00232.68046,W,1,10,1.01,134.6,M,48.6,M,,*55
$GNGGA,134501.00,5157.01311,N,00232.68047,W,1,10,1.03,134.7,M,48.6,M,,*50
$GNGGA,134502.00,5157.01317,N,00232.68031,W,1,10,1.01,135.8,M,48.6,M,,*58
$GNGGA,134503.00,5157.01322,N,00232.68014,W,1,10,1.01,136.0,M,48.6,M,,*53
$GNGGA,134504.00,5157.01337,N,00232.67992,W,1,10,1.01,136.6,M,48.6,M,,*5E
$GNGGA,134505.00,5157.01335,N,00232.67939,W,1,10,1.01,137.3,M,48.6,M,,*58
$GNGGA,134506.00,5157.01338,N,00232.67899,W,1,10,1.01,137.7,M,48.6,M,,*59
$GNGGA,134507.00,5157.01348,N,00232.67905,W,1,10,1.01,137.9,M,48.6,M,,*55
$GNGGA,134508.00,5157.01353,N,00232.67907,W,1,10,1.01,137.9,M,48.6,M,,*52
$GNGGA,134509.00,5157.01348,N,00232.67907,W,1,10,1.01,137.8,M,48.6,M,,*58
$GNGGA,134510.00,5157.01346,N,00232.67898,W,1,10,1.01,137.9,M,48.6,M,,*58
$GNGGA,134511.00,5157.01349,N,00232.67898,W,1,10,1.01,137.9,M,48.6,M,,*56
$GNGGA,134512.00,5157.01346,N,00232.67874,W,1,10,1.10,138.8,M,48.6,M,,*56
$GNGGA,134513.00,5157.01340,N,00232.67870,W,1,10,1.01,139.1,M,48.6,M,,*5D
$GNGGA,134514.00,5157.01339,N,00232.67869,W,1,10,1.01,139.7,M,48.6,M,,*5A
$GNGGA,134515.00,5157.01337,N,00232.67870,W,1,10,1.01,139.8,M,48.6,M,,*52
$GNGGA,134516.00,5157.01330,N,00232.67869,W,1,10,1.01,139.8,M,48.6,M,,*5E
$GNGGA,134517.00,5157.01324,N,00232.67872,W,1,10,1.01,139.6,M,48.6,M,,*5E
$GNGGA,134518.00,5157.01318,N,00232.67870,W,1,10,1.01,139.5,M,48.6,M,,*5F
$GNGGA,134519.00,5157.01311,N,00232.67871,W,1,10,1.01,139.5,M,48.6,M,,*56
$GNGGA,134520.00,5157.01307,N,00232.67873,W,1,10,1.01,139.6,M,48.6,M,,*5A
$GNGGA,134521.00,5157.01306,N,00232.67872,W,1,10,1.01,139.5,M,48.6,M,,*58
$GNGGA,134522.00,5157.01301,N,00232.67868,W,1,10,1.01,139.6,M,48.6,M,,*54
$GNGGA,134523.00,5157.01298,N,00232.67865,W,1,10,1.01,139.6,M,48.6,M,,*59
$GNGGA,134524.00,5157.01306,N,00232.67866,W,1,10,1.01,139.4,M,48.6,M,,*59
$GNGGA,134525.00,5157.01314,N,00232.67867,W,1,11,0.96,139.1,M,48.6,M,,*51
$GNGGA,134526.00,5157.01308,N,00232.67883,W,1,11,0.96,138.9,M,48.6,M,,*5C
$GNGGA,134527.00,5157.01309,N,00232.67900,W,1,11,0.96,139.0,M,48.6,M,,*5E
$GNGGA,134528.00,5157.01306,N,00232.67902,W,1,11,0.96,138.9,M,48.6,M,,*54
$GNGGA,134529.00,5157.01304,N,00232.67897,W,1,11,0.96,139.0,M,48.6,M,,*52
$GNGGA,134530.00,5157.01303,N,00232.67893,W,1,11,0.96,139.3,M,48.6,M,,*5A
$GNGGA,134531.00,5157.01299,N,00232.67893,W,1,11,0.96,139.3,M,48.6,M,,*59
$GNGGA,134532.00,5157.01303,N,00232.67895,W,1,11,0.96,139.6,M,48.6,M,,*5B
$GNGGA,134533.00,5157.01304,N,00232.67900,W,1,11,0.96,139.8,M,48.6,M,,*5E
$GNGGA,134534.00,5157.01306,N,00232.67901,W,1,11,0.96,140.0,M,48.6,M,,*5C
$GNGGA,134535.00,5157.01309,N,00232.67901,W,1,11,0.96,140.1,M,48.6,M,,*53
$GNGGA,134536.00,5157.01313,N,00232.67903,W,1,11,0.96,140.2,M,48.6,M,,*5A
$GNGGA,134537.00,5157.01315,N,00232.67901,W,1,11,0.96,140.4,M,48.6,M,,*59
$GNGGA,134538.00,5157.01318,N,00232.67900,W,1,11,0.96,140.5,M,48.6,M,,*5B
$GNGGA,134539.00,5157.01318,N,00232.67902,W,1,11,0.96,140.5,M,48.6,M,,*58
$GNGGA,134540.00,5157.01321,N,00232.67907,W,1,11,0.96,140.5,M,48.6,M,,*59
$GNGGA,134541.00,5157.01322,N,00232.67909,W,1,11,0.96,140.5,M,48.6,M,,*55
$GNGGA,134542.00,5157.01327,N,00232.67915,W,1,11,0.96,140.6,M,48.6,M,,*5D
$GNGGA,134543.00,5157.01329,N,00232.67906,W,1,11,0.96,140.7,M,48.6,M,,*51
$GNGGA,134544.00,5157.01310,N,00232.67872,W,1,11,0.96,141.4,M,48.6,M,,*5C
$GNGGA,134545.00,5157.01288,N,00232.67838,W,1,11,0.96,142.1,M,48.6,M,,*55
$GNGGA,134546.00,5157.01282,N,00232.67836,W,1,11,0.96,141.7,M,48.6,M,,*57
$GNGGA,134547.00,5157.01290,N,00232.67839,W,1,11,0.96,141.8,M,48.6,M,,*55
$GNGGA,134548.00,5157.01300,N,00232.67847,W,1,11,0.96,141.9,M,48.6,M,,*5A
$GNGGA,134549.00,5157.01299,N,00232.67850,W,1,11,0.96,142.0,M,48.6,M,,*56
$GNGGA,134550.00,5157.01296,N,00232.67854,W,1,11,0.96,141.8,M,48.6,M,,*5E
$GNGGA,134551.00,5157.01296,N,00232.67861,W,1,11,0.96,141.7,M,48.6,M,,*56
$GNGGA,134552.00,5157.01296,N,00232.67869,W,1,11,0.96,141.6,M,48.6,M,,*5C
$GNGGA,134553.00,5157.01297,N,00232.67882,W,1,11,0.96,141.4,M,48.6,M,,*5B
$GNGGA,134554.00,5157.01301,N,00232.67886,W,1,11,0.96,141.1,M,48.6,M,,*53
$GNGGA,134555.00,5157.01289,N,00232.67875,W,1,11,0.96,141.3,M,48.6,M,,*5D
$GNGGA,134556.00,5157.01276,N,00232.67885,W,1,11,0.96,141.0,M,48.6,M,,*52
$GNGGA,134557.00,5157.01265,N,00232.67887,W,1,11,0.96,140.4,M,48.6,M,,*56
$GNGGA,134558.00,5157.01258,N,00232.67887,W,1,11,0.96,140.0,M,48.6,M,,*53
$GNGGA,134559.00,5157.01258,N,00232.67893,W,1,11,0.96,140.0,M,48.6,M,,*57
$GNGGA,134600.00,5157.01255,N,00232.67890,W,1,11,0.96,140.0,M,48.6,M,,*56
$GNGGA,134601.00,5157.01258,N,00232.67891,W,1,11,0.96,140.0,M,48.6,M,,*5B
$GNGGA,134602.00,5157.01273,N,00232.67889,W,1,11,0.96,140.5,M,48.6,M,,*5D
$GNGGA,134603.00,5157.01276,N,00232.67898,W,1,11,0.96,140.5,M,48.6,M,,*59
$GNGGA,134604.00,5157.01273,N,00232.67912,W,1,11,0.96,140.3,M,48.6,M,,*5E
$GNGGA,134605.00,5157.01270,N,00232.67927,W,1,11,0.96,140.1,M,48.6,M,,*58
$GNGGA,134606.00,5157.01275,N,00232.67933,W,1,11,0.96,140.2,M,48.6,M,,*58
$GNGGA,134607.00,5157.01278,N,00232.67932,W,1,11,0.96,140.3,M,48.6,M,,*54
$GNGGA,134608.00,5157.01287,N,00232.67936,W,1,11,0.96,140.7,M,48.6,M,,*5B
$GNGGA,134609.00,5157.01293,N,00232.67933,W,1,11,0.96,140.8,M,48.6,M,,*55
$GNGGA,134610.00,5157.01297,N,00232.67931,W,1,11,0.96,140.8,M,48.6,M,,*5B
$GNGGA,134611.00,5157.01304,N,00232.67932,W,1,11,0.96,140.8,M,48.6,M,,*52
$GNGGA,134612.00,5157.01311,N,00232.67927,W,1,11,0.96,141.0,M,48.6,M,,*58
$GNGGA,134613.00,5157.01319,N,00232.67929,W,1,11,0.96,141.2,M,48.6,M,,*5D
$GNGGA,134614.00,5157.01321,N,00232.67928,W,1,11,0.96,141.3,M,48.6,M,,*51
$GNGGA,134615.00,5157.01324,N,00232.67927,W,1,11,0.96,141.4,M,48.6,M,,*5D
$GNGGA,134616.00,5157.01326,N,00232.67929,W,1,11,0.96,141.5,M,48.6,M,,*53
$GNGGA,134617.00,5157.01327,N,00232.67923,W,1,11,0.96,141.6,M,48.6,M,,*5A
$GNGGA,134618.00,5157.01333,N,00232.67914,W,1,11,0.96,142.1,M,48.6,M,,*50
$GNGGA,134619.00,5157.01342,N,00232.67906,W,1,11,0.96,142.3,M,48.6,M,,*56
$GNGGA,134620.00,5157.01350,N,00232.67894,W,1,11,0.96,142.2,M,48.6,M,,*54
$GNGGA,134621.00,5157.01348,N,00232.67893,W,1,11,0.96,142.2,M,48.6,M,,*5B
$GNGGA,134622.00,5157.01354,N,00232.67895,W,1,11,0.96,142.3,M,48.6,M,,*52
$GNGGA,134623.00,5157.01354,N,00232.67898,W,1,11,0.96,142.3,M,48.6,M,,*5E
$GNGGA,134624.00,5157.01361,N,00232.67902,W,1,11,0.96,142.6,M,48.6,M,,*58
$GNGGA,134625.00,5157.01365,N,00232.67904,W,1,11,0.96,142.8,M,48.6,M,,*55
$GNGGA,134626.00,5157.01365,N,00232.67905,W,1,11,0.96,142.9,M,48.6,M,,*56
$GNGGA,134627.00,5157.01363,N,00232.67912,W,1,11,0.96,142.8,M,48.6,M,,*56
$GNGGA,134628.00,5157.01366,N,00232.67911,W,1,11,0.96,143.0,M,48.6,M,,*56
$GNGGA,134629.00,5157.01367,N,00232.67913,W,1,11,0.96,142.9,M,48.6,M,,*5C
$GNGGA,134630.00,5157.01365,N,00232.67925,W,1,11,0.96,143.1,M,48.6,M,,*5A
$GNGGA,134631.00,5157.01349,N,00232.67943,W,1,11,0.96,142.7,M,48.6,M,,*52
$GNGGA,134632.00,5157.01348,N,00232.67949,W,1,11,0.96,142.7,M,48.6,M,,*5A
$GNGGA,134633.00,5157.01341,N,00232.67959,W,1,11,0.96,142.3,M,48.6,M,,*57
$GNGGA,134634.00,5157.01338,N,00232.67960,W,1,11,0.96,142.3,M,48.6,M,,*54
$GNGGA,134635.00,5157.01340,N,00232.67963,W,1,11,0.96,142.2,M,48.6,M,,*58
$GNGGA,134636.00,5157.01345,N,00232.67968,W,1,11,0.96,142.3,M,48.6,M,,*54
$GNGGA,134637.00,5157.01345,N,00232.67971,W,1,11,0.96,142.3,M,48.6,M,,*5D
$GNGGA,134638.00,5157.01345,N,00232.67972,W,1,11,0.96,142.4,M,48.6,M,,*56
$GNGGA,134639.00,5157.01322,N,00232.67951,W,1,11,0.96,142.6,M,48.6,M,,*55
$GNGGA,134640.00,5157.01308,N,00232.67937,W,1,11,0.96,142.6,M,48.6,M,,*53
$GNGGA,134641.00,5157.01324,N,00232.67922,W,1,11,0.96,142.7,M,48.6,M,,*59
$GNGGA,134642.00,5157.01334,N,00232.67913,W,1,11,0.96,142.7,M,48.6,M,,*59
$GNGGA,134643.00,5157.01337,N,00232.67911,W,1,11,0.96,142.6,M,48.6,M,,*58
$GNGGA,134644.00,5157.01335,N,00232.67916,W,1,11,0.96,142.7,M,48.6,M,,*5B
$GNGGA,134645.00,5157.01330,N,00232.67919,W,1,11,0.96,142.7,M,48.6,M,,*50
$GNGGA,134646.00,5157.01333,N,00232.67924,W,1,11,0.96,142.9,M,48.6,M,,*50
$GNGGA,134647.00,5157.01333,N,00232.67935,W,1,11,0.96,143.0,M,48.6,M,,*59
$GNGGA,134648.00,5157.01335,N,00232.67945,W,1,11,0.96,143.1,M,48.6,M,,*56
$GNGGA,134649.00,5157.01333,N,00232.67952,W,1,11,0.96,143.1,M,48.6,M,,*57
$GNGGA,134650.00,5157.01332,N,00232.67952,W,1,11,0.96,143.1,M,48.6,M,,*5E
$GNGGA,134651.00,5157.01338,N,00232.67971,W,1,11,0.96,142.7,M,48.6,M,,*53
$GNGGA,134652.00,5157.01352,N,00232.67994,W,1,11,0.96,142.3,M,48.6,M,,*53
$GNGGA,134653.00,5157.01361,N,00232.68010,W,1,11,0.96,141.8,M,48.6,M,,*50
$GNGGA,134654.00,5157.01364,N,00232.68002,W,1,11,0.96,141.6,M,48.6,M,,*5F
$GNGGA,134655.00,5157.01373,N,00232.67997,W,1,11,0.96,141.5,M,48.6,M,,*51
$GNGGA,134656.00,5157.01382,N,00232.67995,W,1,11,0.96,141.7,M,48.6,M,,*5C
$GNGGA,134657.00,5157.01387,N,00232.68002,W,1,11,0.96,141.6,M,48.6,M,,*51
$GNGGA,134658.00,5157.01398,N,00232.68007,W,1,11,0.96,142.1,M,48.6,M,,*51
$GNGGA,134659.00,5157.01429,N,00232.68003,W,1,11,0.96,142.7,M,48.6,M,,*5F
$GNGGA,134700.00,5157.01443,N,00232.68008,W,1,11,0.96,142.8,M,48.6,M,,*5A
$GNGGA,134701.00,5157.01444,N,00232.68033,W,1,11,0.96,142.9,M,48.6,M,,*55
$GNGGA,134702.00,5157.01439,N,00232.68040,W,1,11,0.96,143.4,M,48.6,M,,*54
$GNGGA,134703.00,5157.01501,N,00232.68090,W,1,11,0.96,145.0,M,48.6,M,,*50
$GNGGA,134704.00,5157.01503,N,00232.68108,W,1,11,0.96,144.2,M,48.6,M,,*56
$GNGGA,134705.00,5157.01494,N,00232.68087,W,1,11,0.96,144.0,M,48.6,M,,*5C
$GNGGA,134706.00,5157.01488,N,00232.68086,W,1,11,0.96,144.0,M,48.6,M,,*53
$GNGGA,134707.00,5157.01477,N,00232.68083,W,1,11,0.96,143.6,M,48.6,M,,*56
$GNGGA,134708.00,5157.01472,N,00232.68069,W,1,11,0.96,143.4,M,48.6,M,,*5A
$GNGGA,134709.00,5157.01469,N,00232.68061,W,1,11,0.96,143.2,M,48.6,M,,*5F
$GNGGA,134710.00,5157.01458,N,00232.68049,W,1,11,0.96,142.8,M,48.6,M,,*54
$GNGGA,134711.00,5157.01449,N,00232.68042,W,1,11,0.96,142.5,M,48.6,M,,*53
$GNGGA,134712.00,5157.01449,N,00232.68043,W,1,11,0.96,142.3,M,48.6,M,,*57
$GNGGA,134713.00,5157.01451,N,00232.68036,W,1,11,0.96,142.0,M,48.6,M,,*5E
$GNGGA,134714.00,5157.01453,N,00232.68036,W,1,11,0.96,142.0,M,48.6,M,,*5B
$GNGGA,134715.00,5157.01445,N,00232.68034,W,1,11,0.96,141.8,M,48.6,M,,*54
$GNGGA,134716.00,5157.01445,N,00232.68032,W,1,11,0.96,142.2,M,48.6,M,,*58
$GNGGA,134717.00,5157.01447,N,00232.68024,W,1,11,0.96,142.3,M,48.6,M,,*5D
$GNGGA,134718.00,5157.01443,N,00232.68021,W,1,11,0.96,142.4,M,48.6,M,,*54
$GNGGA,134719.00,5157.01440,N,00232.68015,W,1,11,0.96,142.4,M,48.6,M,,*51
$GNGGA,134720.00,5157.01435,N,00232.68014,W,1,11,0.96,142.3,M,48.6,M,,*5F
$GNGGA,134721.00,5157.01433,N,00232.68016,W,1,11,0.96,142.3,M,48.6,M,,*5A
$GNGGA,134722.00,5157.01433,N,00232.68020,W,1,11,0.96,142.2,M,48.6,M,,*5D
$GNGGA,134723.00,5157.01432,N,00232.68023,W,1,11,0.96,142.1,M,48.6,M,,*5D
$GNGGA,134724.00,5157.01436,N,00232.68023,W,1,10,1.01,142.3,M,48.6,M,,*52
$GNGGA,134725.00,5157.01437,N,00232.68024,W,1,10,1.01,142.1,M,48.6,M,,*57
$GNGGA,134726.00,5157.01438,N,00232.68018,W,1,10,1.01,142.3,M,48.6,M,,*56
$GNGGA,134727.00,5157.01436,N,00232.68017,W,1,11,0.96,142.2,M,48.6,M,,*59
$GNGGA,134728.00,5157.01434,N,00232.68017,W,1,11,0.96,142.2,M,48.6,M,,*54
$GNGGA,134729.00,5157.01431,N,00232.68017,W,1,11,0.96,142.2,M,48.6,M,,*50
$GNGGA,134730.00,5157.01427,N,00232.68017,W,1,11,0.96,142.1,M,48.6,M,,*5C
$GNGGA,134731.00,5157.01426,N,00232.68015,W,1,11,0.96,142.2,M,48.6,M,,*5D
$GNGGA,134732.00,5157.01423,N,00232.68019,W,1,11,0.96,142.2,M,48.6,M,,*57
$GNGGA,134733.00,5157.01423,N,00232.68024,W,1,10,1.01,142.2,M,48.6,M,,*56
$GNGGA,134734.00,5157.01421,N,00232.68029,W,1,11,0.96,142.1,M,48.6,M,,*53
$GNGGA,134735.00,5157.01420,N,00232.68031,W,1,09,1.01,141.9,M,48.6,M,,*57
$GNGGA,134736.00,5157.01420,N,00232.68033,W,1,10,1.01,142.0,M,48.6,M,,*54
$GNGGA,134737.00,5157.01417,N,00232.68019,W,1,10,1.01,142.1,M,48.6,M,,*58
$GNGGA,134738.00,5157.01412,N,00232.68016,W,1,10,1.01,142.0,M,48.6,M,,*5C
$GNGGA,134739.00,5157.01401,N,00232.68016,W,1,11,0.96,141.9,M,48.6,M,,*5B
$GNGGA,134740.00,5157.01400,N,00232.68020,W,1,11,0.96,141.8,M,48.6,M,,*50
$GNGGA,134741.00,5157.01394,N,00232.68014,W,1,11,0.96,141.8,M,48.6,M,,*5C
$GNGGA,134742.00,5157.01387,N,00232.68014,W,1,11,0.96,141.4,M,48.6,M,,*51
$GNGGA,134743.00,5157.01385,N,00232.68022,W,1,11,0.96,141.2,M,48.6,M,,*51
$GNGGA,134744.00,5157.01385,N,00232.68028,W,1,11,0.96,141.3,M,48.6,M,,*5D
$GNGGA,134745.00,5157.01391,N,00232.68030,W,1,11,0.96,141.5,M,48.6,M,,*56
$GNGGA,134746.00,5157.01405,N,00232.68019,W,1,11,0.96,141.9,M,48.6,M,,*58
$GNGGA,134747.00,5157.01405,N,00232.68010,W,1,11,0.96,141.6,M,48.6,M,,*5F
$GNGGA,134748.00,5157.01409,N,00232.68008,W,1,11,0.96,142.2,M,48.6,M,,*52
$GNGGA,134749.00,5157.01406,N,00232.68013,W,1,11,0.96,141.8,M,48.6,M,,*5F
$GNGGA,134750.00,5157.01401,N,00232.68013,W,1,11,0.96,141.8,M,48.6,M,,*50
$GNGGA,134751.00,5157.01399,N,00232.68013,W,1,11,0.96,141.9,M,48.6,M,,*56
$GNGGA,134752.00,5157.01401,N,00232.68018,W,1,11,0.96,141.9,M,48.6,M,,*58
$GNGGA,134753.00,5157.01403,N,00232.68031,W,1,11,0.96,141.7,M,48.6,M,,*5E
$GNGGA,134754.00,5157.01403,N,00232.68041,W,1,11,0.96,141.5,M,48.6,M,,*5C
$GNGGA,134755.00,5157.01400,N,00232.68041,W,1,11,0.96,141.5,M,48.6,M,,*5E
$GNGGA,134756.00,5157.01396,N,00232.68042,W,1,11,0.96,141.5,M,48.6,M,,*56
$GNGGA,134757.00,5157.01400,N,00232.68053,W,1,11,0.96,141.2,M,48.6,M,,*58
$GNGGA,134758.00,5157.01402,N,00232.68054,W,1,11,0.96,141.1,M,48.6,M,,*51
$GNGGA,134759.00,5157.01395,N,00232.68040,W,1,11,0.96,140.9,M,48.6,M,,*55
$GNGGA,134800.00,5157.01392,N,00232.68030,W,1,11,0.96,140.8,M,48.6,M,,*57
$GNGGA,134801.00,5157.01394,N,00232.68030,W,1,11,0.96,140.8,M,48.6,M,,*50
$GNGGA,134802.00,5157.01395,N,00232.68028,W,1,11,0.96,140.8,M,48.6,M,,*5B
$GNGGA,134803.00,5157.01398,N,00232.68035,W,1,11,0.96,140.4,M,48.6,M,,*57
$GNGGA,134804.00,5157.01401,N,00232.68036,W,1,11,0.96,140.2,M,48.6,M,,*52
$GNGGA,134805.00,5157.01399,N,00232.68042,W,1,11,0.96,140.1,M,48.6,M,,*55
$GNGGA,134806.00,5157.01395,N,00232.68044,W,1,11,0.96,140.1,M,48.6,M,,*5C
$GNGGA,134807.00,5157.01391,N,00232.68048,W,1,11,0.96,140.0,M,48.6,M,,*54
$GNGGA,134808.00,5157.01393,N,00232.68061,W,1,11,0.96,140.1,M,48.6,M,,*53
$GNGGA,134809.00,5157.01394,N,00232.68063,W,1,11,0.96,140.2,M,48.6,M,,*54
$GNGGA,134810.00,5157.01394,N,00232.68048,W,1,11,0.96,140.6,M,48.6,M,,*51
$GNGGA,134811.00,5157.01390,N,00232.68038,W,1,11,0.96,140.8,M,48.6,M,,*5D
$GNGGA,134812.00,5157.01400,N,00232.68057,W,1,11,0.96,140.2,M,48.6,M,,*53
$GNGGA,134813.00,5157.01412,N,00232.68073,W,1,11,0.96,140.0,M,48.6,M,,*55
$GNGGA,134814.00,5157.01405,N,00232.68074,W,1,11,1.07,140.0,M,48.6,M,,*5A
$GNGGA,134815.00,5157.01404,N,00232.68053,W,1,11,0.96,140.6,M,48.6,M,,*50
$GNGGA,134816.00,5157.01400,N,00232.68042,W,1,11,0.96,140.9,M,48.6,M,,*58
$GNGGA,134817.00,5157.01401,N,00232.68046,W,1,11,0.96,140.9,M,48.6,M,,*5C
$GNGGA,134818.00,5157.01400,N,00232.68049,W,1,11,0.96,141.0,M,48.6,M,,*55
$GNGGA,134819.00,5157.01416,N,00232.68047,W,1,12,0.84,140.7,M,48.6,M,,*5B
$GNGGA,134820.00,5157.01432,N,00232.68051,W,1,12,0.84,140.4,M,48.6,M,,*53
$GNGGA,134821.00,5157.01432,N,00232.68054,W,1,12,0.84,140.4,M,48.6,M,,*57
$GNGGA,134822.00,5157.01440,N,00232.68048,W,1,12,0.84,140.5,M,48.6,M,,*5D
$GNGGA,134823.00,5157.01445,N,00232.68047,W,1,12,0.84,140.6,M,48.6,M,,*55
$GNGGA,134824.00,5157.01448,N,00232.68052,W,1,12,0.84,140.6,M,48.6,M,,*5B
$GNGGA,134825.00,5157.01450,N,00232.68057,W,1,12,0.84,140.6,M,48.6,M,,*56
$GNGGA,134826.00,5157.01450,N,00232.68048,W,1,12,0.84,140.8,M,48.6,M,,*55
$GNGGA,134827.00,5157.01450,N,00232.68043,W,1,12,0.84,140.9,M,48.6,M,,*5E
$GNGGA,134828.00,5157.01451,N,00232.68043,W,1,12,0.84,140.9,M,48.6,M,,*50
$GNGGA,134829.00,5157.01449,N,00232.68041,W,1,12,0.84,140.8,M,48.6,M,,*5B
$GNGGA,134830.00,5157.01446,N,00232.68043,W,1,12,0.84,140.7,M,48.6,M,,*51
$GNGGA,134831.00,5157.01445,N,00232.68046,W,1,12,0.83,140.5,M,48.6,M,,*53
$GNGGA,134832.00,5157.01446,N,00232.68046,W,1,12,0.83,140.4,M,48.6,M,,*52
$GNGGA,134833.00,5157.01441,N,00232.68035,W,1,12,0.83,140.5,M,48.6,M,,*51
$GNGGA,134834.00,5157.01438,N,00232.68017,W,1,12,0.83,140.5,M,48.6,M,,*58
$GNGGA,134835.00,5157.01433,N,00232.68007,W,1,12,0.83,140.6,M,48.6,M,,*50
$GNGGA,134836.00,5157.01428,N,00232.68006,W,1,12,0.83,140.5,M,48.6,M,,*5B
$GNGGA,134837.00,5157.01425,N,00232.68007,W,1,12,0.83,140.5,M,48.6,M,,*56
$GNGGA,134838.00,5157.01422,N,00232.68008,W,1,12,0.83,140.6,M,48.6,M,,*52
$GNGGA,134839.00,5157.01422,N,00232.68012,W,1,12,0.82,140.4,M,48.6,M,,*5B
$GNGGA,134840.00,5157.01420,N,00232.68012,W,1,12,0.82,140.5,M,48.6,M,,*56
$GNGGA,134841.00,5157.01417,N,00232.68016,W,1,12,0.82,140.4,M,48.6,M,,*56
$GNGGA,134842.00,5157.01414,N,00232.68020,W,1,12,0.82,140.4,M,48.6,M,,*53
$GNGGA,134843.00,5157.01411,N,00232.68022,W,1,12,0.82,140.3,M,48.6,M,,*52
$GNGGA,134844.00,5157.01403,N,00232.68018,W,1,12,0.82,140.2,M,48.6,M,,*5E
$GNGGA,134845.00,5157.01400,N,00232.68020,W,1,12,0.82,140.1,M,48.6,M,,*54
$GNGGA,134846.00,5157.01402,N,00232.68012,W,1,12,0.82,140.1,M,48.6,M,,*54
$GNGGA,134847.00,5157.01399,N,00232.68010,W,1,12,0.82,140.0,M,48.6,M,,*53
$GNGGA,134848.00,5157.01395,N,00232.68009,W,1,12,0.82,140.1,M,48.6,M,,*59
$GNGGA,134849.00,5157.01396,N,00232.68000,W,1,12,0.82,140.2,M,48.6,M,,*51
$GNGGA,134850.00,5157.01394,N,00232.67997,W,1,12,0.82,140.2,M,48.6,M,,*53
$GNGGA,134851.00,5157.01398,N,00232.68004,W,1,12,0.82,140.2,M,48.6,M,,*52
$GNGGA,134852.00,5157.01401,N,00232.68003,W,1,12,0.82,140.3,M,48.6,M,,*50
$GNGGA,134853.00,5157.01402,N,00232.68001,W,1,12,0.83,140.2,M,48.6,M,,*50
$GNGGA,134854.00,5157.01402,N,00232.68011,W,1,12,0.83,140.1,M,48.6,M,,*55
$GNGGA,134855.00,5157.01397,N,00232.68013,W,1,12,0.83,139.7,M,48.6,M,,*55
$GNGGA,134856.00,5157.01391,N,00232.68015,W,1,12,0.82,139.5,M,48.6,M,,*55
$GNGGA,134857.00,5157.01390,N,00232.68023,W,1,12,0.82,139.4,M,48.6,M,,*51
$GNGGA,134858.00,5157.01389,N,00232.68020,W,1,12,0.82,139.3,M,48.6,M,,*52
$GNGGA,134859.00,5157.01393,N,00232.68028,W,1,12,0.82,139.2,M,48.6,M,,*51
$GNGGA,134900.00,5157.01398,N,00232.68068,W,1,12,0.82,138.5,M,48.6,M,,*55
$GNGGA,134901.00,5157.01399,N,00232.68100,W,1,12,0.82,137.8,M,48.6,M,,*58
$GNGGA,134902.00,5157.01405,N,00232.68100,W,1,12,0.82,138.0,M,48.6,M,,*5E
$GNGGA,134903.00,5157.01407,N,00232.68099,W,1,12,0.82,138.2,M,48.6,M,,*5E
$GNGGA,134904.00,5157.01389,N,00232.68083,W,1,12,0.82,138.0,M,48.6,M,,*51
$GNGGA,134905.00,5157.01386,N,00232.68079,W,1,12,0.82,138.0,M,48.6,M,,*5A
$GNGGA,134906.00,5157.01396,N,00232.68086,W,1,12,0.82,138.1,M,48.6,M,,*59
$GNGGA,134907.00,5157.01398,N,00232.68082,W,1,12,0.82,138.0,M,48.6,M,,*53
$GNGGA,134908.00,5157.01394,N,00232.68083,W,1,12,0.83,137.7,M,48.6,M,,*58
$GNGGA,134909.00,5157.01398,N,00232.68072,W,1,12,0.82,138.2,M,48.6,M,,*50
$GNGGA,134910.00,5157.01398,N,00232.68072,W,1,12,0.82,138.2,M,48.6,M,,*58
$GNGGA,134911.00,5157.01401,N,00232.68076,W,1,12,0.82,138.5,M,48.6,M,,*5D
$GNGGA,134912.00,5157.01401,N,00232.68079,W,1,12,0.82,138.6,M,48.6,M,,*52
$GNGGA,134913.00,5157.01401,N,00232.68078,W,1,12,0.82,138.9,M,48.6,M,,*5D
$GNGGA,134914.00,5157.01401,N,00232.68083,W,1,12,0.82,138.9,M,48.6,M,,*5E
$GNGGA,134915.00,5157.01390,N,00232.68079,W,1,12,0.82,138.7,M,48.6,M,,*5B
$GNGGA,134916.00,5157.01352,N,00232.68082,W,1,12,0.82,138.0,M,48.6,M,,*55
$GNGGA,134917.00,5157.01331,N,00232.68084,W,1,12,0.82,137.9,M,48.6,M,,*51
$GNGGA,134918.00,5157.01324,N,00232.68105,W,1,12,0.83,137.2,M,48.6,M,,*58
$GNGGA,134919.00,5157.01335,N,00232.68100,W,1,12,0.82,137.5,M,48.6,M,,*5A
$GNGGA,134920.00,5157.01336,N,00232.68086,W,1,12,0.82,137.6,M,48.6,M,,*5F
$GNGGA,134921.00,5157.01335,N,00232.68079,W,1,12,0.82,137.9,M,48.6,M,,*52
$GNGGA,134922.00,5157.01333,N,00232.68077,W,1,12,0.82,137.7,M,48.6,M,,*57
$GNGGA,134923.00,5157.01331,N,00232.68078,W,1,12,0.82,137.5,M,48.6,M,,*59
$GNGGA,134924.00,5157.01330,N,00232.68071,W,1,12,0.82,137.6,M,48.6,M,,*55
$GNGGA,134925.00,5157.01328,N,00232.68059,W,1,12,0.82,137.8,M,48.6,M,,*59
$GNGGA,134926.00,5157.01325,N,00232.68055,W,1,12,0.82,137.9,M,48.6,M,,*5A
$GNGGA,134927.00,5157.01327,N,00232.68056,W,1,12,0.82,138.0,M,48.6,M,,*5C
$GNGGA,134928.00,5157.01341,N,00232.68040,W,1,12,0.82,138.7,M,48.6,M,,*53
$GNGGA,134929.00,5157.01347,N,00232.68036,W,1,12,0.82,138.5,M,48.6,M,,*57
$GNGGA,134930.00,5157.01346,N,00232.68039,W,1,12,0.82,138.3,M,48.6,M,,*57
$GNGGA,134931.00,5157.01342,N,00232.68052,W,1,12,0.82,138.1,M,48.6,M,,*5D
$GNGGA,134932.00,5157.01342,N,00232.68063,W,1,12,0.82,138.2,M,48.6,M,,*5F
$GNGGA,134933.00,5157.01338,N,00232.68070,W,1,12,0.82,138.3,M,48.6,M,,*50
$GNGGA,134934.00,5157.01339,N,00232.68075,W,1,12,0.82,138.4,M,48.6,M,,*54
$GNGGA,134935.00,5157.01337,N,00232.68074,W,1,12,0.82,138.5,M,48.6,M,,*5B
$GNGGA,134936.00,5157.01333,N,00232.68069,W,1,12,0.82,138.6,M,48.6,M,,*53
$GNGGA,134937.00,5157.01330,N,00232.68066,W,1,12,0.82,138.7,M,48.6,M,,*5F
$GNGGA,134938.00,5157.01331,N,00232.68066,W,1,12,0.82,138.6,M,48.6,M,,*50
$GNGGA,134939.00,5157.01330,N,00232.68065,W,1,12,0.82,138.5,M,48.6,M,,*50
$GNGGA,134940.00,5157.01337,N,00232.68058,W,1,12,0.82,138.8,M,48.6,M,,*5A
$GNGGA,134941.00,5157.01343,N,00232.68059,W,1,12,0.82,138.9,M,48.6,M,,*58
$GNGGA,134942.00,5157.01345,N,00232.68054,W,1,12,0.82,138.9,M,48.6,M,,*50
$GNGGA,134943.00,5157.01342,N,00232.68052,W,1,12,0.82,139.0,M,48.6,M,,*58
$GNGGA,134944.00,5157.01344,N,00232.68053,W,1,12,0.82,139.1,M,48.6,M,,*59
$GNGGA,134945.00,5157.01343,N,00232.68048,W,1,12,0.82,139.2,M,48.6,M,,*56
$GNGGA,134946.00,5157.01340,N,00232.68043,W,1,12,0.82,139.4,M,48.6,M,,*5B
$GNGGA,134947.00,5157.01340,N,00232.68041,W,1,12,0.82,139.5,M,48.6,M,,*59
$GNGGA,134948.00,5157.01309,N,00232.68098,W,1,12,0.82,138.4,M,48.6,M,,*5F
$GNGGA,134949.00,5157.01296,N,00232.68135,W,1,12,0.82,138.1,M,48.6,M,,*5A
$GNGGA,134950.00,5157.01298,N,00232.68137,W,1,12,0.82,138.5,M,48.6,M,,*5A
$GNGGA,134951.00,5157.01299,N,00232.68135,W,1,12,0.82,138.8,M,48.6,M,,*55
$GNGGA,134952.00,5157.01306,N,00232.68142,W,1,12,0.82,138.8,M,48.6,M,,*51
$GNGGA,134953.00,5157.01311,N,00232.68139,W,1,12,0.82,139.0,M,48.6,M,,*53
$GNGGA,134954.00,5157.01310,N,00232.68137,W,1,12,0.82,138.8,M,48.6,M,,*52
$GNGGA,134955.00,5157.01311,N,00232.68127,W,1,12,0.82,138.9,M,48.6,M,,*52
$GNGGA,134956.00,5157.01307,N,00232.68119,W,1,12,0.82,139.0,M,48.6,M,,*53
$GNGGA,134957.00,5157.01305,N,00232.68114,W,1,12,0.82,139.1,M,48.6,M,,*5C
$GNGGA,134958.00,5157.01304,N,00232.68112,W,1,12,0.82,139.2,M,48.6,M,,*57
$GNGGA,134959.00,5157.01305,N,00232.68117,W,1,12,0.82,139.1,M,48.6,M,,*51
$GNGGA,135000.00,5157.01306,N,00232.68119,W,1,12,0.82,139.0,M,48.6,M,,*59
$GNGGA,135001.00,5157.01295,N,00232.68111,W,1,12,0.82,138.8,M,48.6,M,,*52
$GNGGA,135002.00,5157.01289,N,00232.68123,W,1,12,0.82,138.4,M,48.6,M,,*51
$GNGGA,135003.00,5157.01269,N,00232.68141,W,1,12,0.82,137.5,M,48.6,M,,*54
$GNGGA,135004.00,5157.01262,N,00232.68149,W,1,12,0.82,137.1,M,48.6,M,,*54
$GNGGA,135005.00,5157.01267,N,00232.68144,W,1,12,0.82,137.2,M,48.6,M,,*5E
$GNGGA,135006.00,5157.01295,N,00232.68155,W,1,12,0.82,137.3,M,48.6,M,,*51
$GNGGA,135007.00,5157.01304,N,00232.68167,W,1,12,0.82,137.3,M,48.6,M,,*58
$GNGGA,135008.00,5157.01293,N,00232.68164,W,1,12,0.94,137.2,M,48.6,M,,*5D
$GNGGA,135009.00,5157.01291,N,00232.68157,W,1,12,0.94,137.2,M,48.6,M,,*5E
$GNGGA,135010.00,5157.01278,N,00232.68146,W,1,12,0.82,137.1,M,48.6,M,,*55
$GNGGA,135011.00,5157.01277,N,00232.68134,W,1,12,0.82,137.3,M,48.6,M,,*5C
$GNGGA,135012.00,5157.01284,N,00232.68132,W,1,12,0.81,137.2,M,48.6,M,,*57
$GNGGA,135013.00,5157.01285,N,00232.68115,W,1,12,0.94,137.5,M,48.6,M,,*51
$GNGGA,135014.00,5157.01287,N,00232.68103,W,1,12,0.94,137.8,M,48.6,M,,*5E
$GNGGA,135015.00,5157.01292,N,00232.68087,W,1,12,0.81,138.4,M,48.6,M,,*51
$GNGGA,135016.00,5157.01293,N,00232.68081,W,1,12,0.81,138.5,M,48.6,M,,*54
$GNGGA,135017.00,5157.01300,N,00232.68076,W,1,12,0.81,138.8,M,48.6,M,,*5B
$GNGGA,135018.00,5157.01306,N,00232.68077,W,1,12,0.81,139.0,M,48.6,M,,*5A
$GNGGA,135019.00,5157.01311,N,00232.68074,W,1,12,0.81,139.1,M,48.6,M,,*5F
$GNGGA,135020.00,5157.01309,N,00232.68076,W,1,12,0.81,139.1,M,48.6,M,,*5E
$GNGGA,135021.00,5157.01319,N,00232.68118,W,1,12,0.94,138.7,M,48.6,M,,*54
$GNGGA,135022.00,5157.01320,N,00232.68144,W,1,12,0.94,138.3,M,48.6,M,,*50
$GNGGA,135023.00,5157.01324,N,00232.68154,W,1,12,0.94,138.3,M,48.6,M,,*54
$GNGGA,135024.00,5157.01315,N,00232.68147,W,1,12,0.94,138.0,M,48.6,M,,*50
$GNGGA,135025.00,5157.01306,N,00232.68140,W,1,12,0.81,137.9,M,48.6,M,,*56
$GNGGA,135026.00,5157.01300,N,00232.68128,W,1,12,0.81,138.2,M,48.6,M,,*59
$GNGGA,135027.00,5157.01290,N,00232.68117,W,1,12,0.94,138.1,M,48.6,M,,*5B
$GNGGA,135028.00,5157.01288,N,00232.68106,W,1,12,0.94,138.2,M,48.6,M,,*5E
$GNGGA,135029.00,5157.01290,N,00232.68101,W,1,12,0.81,138.3,M,48.6,M,,*54
$GNGGA,135030.00,5157.01285,N,00232.68097,W,1,12,0.81,138.2,M,48.6,M,,*57
$GNGGA,135031.00,5157.01283,N,00232.68092,W,1,12,0.81,138.2,M,48.6,M,,*55
$GNGGA,135032.00,5157.01285,N,00232.68104,W,1,12,0.81,137.8,M,48.6,M,,*5B
$GNGGA,135033.00,5157.01295,N,00232.68112,W,1,12,0.81,137.7,M,48.6,M,,*53
$GNGGA,135034.00,5157.01295,N,00232.68103,W,1,12,0.81,137.8,M,48.6,M,,*5B
$GNGGA,135035.00,5157.01294,N,00232.68107,W,1,12,0.81,137.8,M,48.6,M,,*5F
$GNGGA,135036.00,5157.01292,N,00232.68104,W,1,12,0.81,137.9,M,48.6,M,,*58
$GNGGA,135037.00,5157.01295,N,00232.68099,W,1,12,0.81,138.0,M,48.6,M,,*5D
$GNGGA,135038.00,5157.01296,N,00232.68092,W,1,12,0.81,137.9,M,48.6,M,,*5C
$GNGGA,135039.00,5157.01298,N,00232.68089,W,1,12,0.81,137.8,M,48.6,M,,*58
$GNGGA,135040.00,5157.01295,N,00232.68082,W,1,12,0.81,137.9,M,48.6,M,,*51
$GNGGA,135041.00,5157.01293,N,00232.68071,W,1,12,0.81,138.1,M,48.6,M,,*5D
$GNGGA,135042.00,5157.01291,N,00232.68060,W,1,12,0.81,138.3,M,48.6,M,,*5E
$GNGGA,135043.00,5157.01291,N,00232.68054,W,1,12,0.81,138.5,M,48.6,M,,*5E
$GNGGA,135044.00,5157.01292,N,00232.68057,W,1,12,0.81,138.6,M,48.6,M,,*5A
$GNGGA,135045.00,5157.01295,N,00232.68065,W,1,12,0.81,138.5,M,48.6,M,,*5E
$GNGGA,135046.00,5157.01305,N,00232.68058,W,1,12,0.81,138.6,M,48.6,M,,*58
$GNGGA,135047.00,5157.01304,N,00232.68054,W,1,12,0.81,138.3,M,48.6,M,,*51
$GNGGA,135048.00,5157.01308,N,00232.68044,W,1,12,0.81,138.7,M,48.6,M,,*57
$GNGGA,135049.00,5157.01314,N,00232.68045,W,1,12,0.81,138.8,M,48.6,M,,*55
$GNGGA,135050.00,5157.01313,N,00232.68052,W,1,12,0.81,138.7,M,48.6,M,,*53
$GNGGA,135051.00,5157.01315,N,00232.68051,W,1,12,0.81,138.7,M,48.6,M,,*57
$GNGGA,135052.00,5157.01315,N,00232.68049,W,1,12,0.81,138.8,M,48.6,M,,*52
$GNGGA,135053.00,5157.01316,N,00232.68046,W,1,12,0.81,138.9,M,48.6,M,,*5E
$GNGGA,135054.00,5157.01313,N,00232.68041,W,1,12,0.81,139.0,M,48.6,M,,*53
$GNGGA,135055.00,5157.01311,N,00232.68035,W,1,12,0.81,139.1,M,48.6,M,,*52
$GNGGA,135056.00,5157.01308,N,00232.68038,W,1,12,0.81,139.1,M,48.6,M,,*54
$GNGGA,135057.00,5157.01303,N,00232.68034,W,1,12,0.81,139.1,M,48.6,M,,*52
$GNGGA,135058.00,5157.01301,N,00232.68026,W,1,12,0.81,139.4,M,48.6,M,,*59
$GNGGA,135059.00,5157.01298,N,00232.68026,W,1,12,0.81,139.6,M,48.6,M,,*5B
$GNGGA,135100.00,5157.01293,N,00232.68031,W,1,12,0.81,139.6,M,48.6,M,,*5B
$GNGGA,135101.00,5157.01288,N,00232.68033,W,1,12,0.81,139.5,M,48.6,M,,*51
$GNGGA,135102.00,5157.01287,N,00232.68026,W,1,12,0.81,139.8,M,48.6,M,,*54
$GNGGA,135103.00,5157.01284,N,00232.68023,W,1,12,0.81,139.8,M,48.6,M,,*53
$GNGGA,135104.00,5157.01282,N,00232.68026,W,1,12,0.81,139.7,M,48.6,M,,*58
$GNGGA,135105.00,5157.01290,N,00232.68032,W,1,12,0.81,139.5,M,48.6,M,,*5D
$GNGGA,135106.00,5157.01301,N,00232.68079,W,1,12,0.84,139.1,M,48.6,M,,*59
$GNGGA,135107.00,5157.01301,N,00232.68101,W,1,12,0.81,139.1,M,48.6,M,,*53
$GNGGA,135108.00,5157.01302,N,00232.68086,W,1,12,0.85,139.3,M,48.6,M,,*57
$GNGGA,135109.00,5157.01300,N,00232.68086,W,1,12,0.85,139.4,M,48.6,M,,*53
$GNGGA,135110.00,5157.01308,N,00232.68077,W,1,12,0.85,139.5,M,48.6,M,,*5C
$GNGGA,135111.00,5157.01311,N,00232.68077,W,1,12,0.85,139.5,M,48.6,M,,*55
$GNGGA,135112.00,5157.01350,N,00232.68028,W,1,12,0.85,139.4,M,48.6,M,,*58
$GNGGA,135113.00,5157.01398,N,00232.67921,W,1,12,0.84,140.2,M,48.6,M,,*5B
$GNGGA,135114.00,5157.01427,N,00232.67785,W,1,12,0.84,140.4,M,48.6,M,,*59
$GNGGA,135115.00,5157.01462,N,00232.67641,W,1,12,0.81,140.4,M,48.6,M,,*55
$GNGGA,135116.00,5157.01497,N,00232.67500,W,1,12,0.81,140.0,M,48.6,M,,*5E
$GNGGA,135117.00,5157.01516,N,00232.67352,W,1,12,0.81,139.5,M,48.6,M,,*5D
$GNGGA,135118.00,5157.01523,N,00232.67245,W,1,12,0.84,138.8,M,48.6,M,,*5A
$GNGGA,135119.00,5157.01527,N,00232.67147,W,1,11,1.00,138.3,M,48.6,M,,*5B
$GNGGA,135120.00,5157.01503,N,00232.67072,W,1,12,0.96,138.2,M,48.6,M,,*5C
$GNGGA,135121.00,5157.01422,N,00232.66978,W,1,11,1.00,138.6,M,48.6,M,,*54
$GNGGA,135122.00,5157.01411,N,00232.66962,W,1,10,1.08,139.3,M,48.6,M,,*51
$GNGGA,135123.00,5157.01379,N,00232.66918,W,1,10,1.08,140.3,M,48.6,M,,*5A
$GNGGA,135124.00,5157.01361,N,00232.66926,W,1,11,1.00,141.7,M,48.6,M,,*55
$GNGGA,135125.00,5157.01315,N,00232.66982,W,1,10,1.05,143.2,M,48.6,M,,*5A
$GNGGA,135126.00,5157.01218,N,00232.66977,W,1,09,1.06,143.6,M,48.6,M,,*50
$GNGGA,135127.00,5157.01066,N,00232.67045,W,1,09,1.06,143.6,M,48.6,M,,*53
$GNGGA,135128.00,5157.00966,N,00232.66998,W,1,08,1.15,142.7,M,48.6,M,,*5F
$GNGGA,135129.00,5157.01060,N,00232.66833,W,1,09,0.92,144.8,M,48.6,M,,*56
$GNGGA,135130.00,5157.01204,N,00232.66603,W,1,08,0.97,148.4,M,48.6,M,,*57
$GNGGA,135131.00,5157.01264,N,00232.66507,W,1,09,0.97,148.2,M,48.6,M,,*50
$GNGGA,135132.00,5157.01319,N,00232.66523,W,1,11,0.89,147.3,M,48.6,M,,*56
$GNGGA,135133.00,5157.01406,N,00232.66497,W,1,11,0.89,146.2,M,48.6,M,,*50
$GNGGA,135134.00,5157.01424,N,00232.66460,W,1,10,0.95,143.7,M,48.6,M,,*53
$GNGGA,135135.00,5157.01404,N,00232.66473,W,1,10,0.95,145.8,M,48.6,M,,*5B
$GNGGA,135136.00,5157.01342,N,00232.66472,W,1,09,0.98,150.7,M,48.6,M,,*52
$GNGGA,135137.00,5157.01154,N,00232.66298,W,1,10,0.97,146.4,M,48.6,M,,*57
$GNGGA,135138.00,5157.01083,N,00232.66058,W,1,08,1.37,145.0,M,48.6,M,,*58
$GNGGA,135139.00,5157.01145,N,00232.65940,W,1,09,0.97,147.1,M,48.6,M,,*58
$GNGGA,135140.00,5157.01201,N,00232.65906,W,1,07,1.43,149.0,M,48.6,M,,*5E
$GNGGA,135141.00,5157.01180,N,00232.65860,W,1,07,1.43,148.0,M,48.6,M,,*55
$GNGGA,135142.00,5157.01158,N,00232.65841,W,1,07,1.43,147.6,M,48.6,M,,*59
$GNGGA,135143.00,5157.01322,N,00232.65981,W,1,08,1.24,153.2,M,48.6,M,,*55
$GNGGA,135144.00,5157.01365,N,00232.66111,W,1,09,1.24,153.3,M,48.6,M,,*53
$GNGGA,135145.00,5157.01426,N,00232.66104,W,1,08,1.24,153.1,M,48.6,M,,*55
$GNGGA,135146.00,5157.01523,N,00232.66207,W,1,08,1.24,151.7,M,48.6,M,,*56
$GNGGA,135147.00,5157.01585,N,00232.66197,W,1,08,1.24,154.2,M,48.6,M,,*51
$GNGGA,135148.00,5157.01649,N,00232.66128,W,1,08,1.24,157.2,M,48.6,M,,*5A
$GNGGA,135149.00,5157.01708,N,00232.66312,W,1,09,0.97,152.0,M,48.6,M,,*5B
$GNGGA,135150.00,5157.01698,N,00232.66384,W,1,09,0.97,151.4,M,48.6,M,,*53
$GNGGA,135151.00,5157.01655,N,00232.66391,W,1,09,0.97,150.2,M,48.6,M,,*50
$GNGGA,135152.00,5157.01617,N,00232.66365,W,1,09,1.03,150.7,M,48.6,M,,*57
$GNGGA,135153.00,5157.01568,N,00232.66395,W,1,09,1.03,149.3,M,48.6,M,,*5E
$GNGGA,135154.00,5157.01464,N,00232.66578,W,1,09,1.03,142.6,M,48.6,M,,*5F
$GNGGA,135155.00,,,,,0,00,99.99,,,,,,*7E
$GNGGA,135156.00,,,,,0,00,99.99,,,,,,*7D
$GNGGA,135157.00,5157.01942,N,00232.68348,W,1,10,1.01,126.0,M,48.6,M,,*50
$GNGGA,135158.00,5157.01340,N,00232.66582,W,1,11,0.92,148.4,M,48.6,M,,*5F
$GNGGA,135159.00,5157.01277,N,00232.66611,W,1,11,0.92,152.6,M,48.6,M,,*5B
$GNGGA,135200.00,5157.01153,N,00232.66601,W,1,11,1.01,152.2,M,48.6,M,,*5F
$GNGGA,135201.00,5157.01122,N,00232.66623,W,1,10,0.93,150.5,M,48.6,M,,*56
$GNGGA,135202.00,5157.01176,N,00232.66636,W,1,10,0.93,149.2,M,48.6,M,,*5F
$GNGGA,135203.00,5157.01234,N,00232.66625,W,1,11,0.89,147.9,M,48.6,M,,*56
$GNGGA,135204.00,5157.01205,N,00232.66596,W,1,11,0.89,146.0,M,48.6,M,,*50
$GNGGA,135205.00,5157.01180,N,00232.66505,W,1,09,1.06,147.2,M,48.6,M,,*59
$GNGGA,135206.00,5157.01177,N,00232.66506,W,1,09,1.06,149.5,M,48.6,M,,*58
$GNGGA,135207.00,5157.01192,N,00232.66528,W,1,10,1.01,148.9,M,48.6,M,,*5C
$GNGGA,135208.00,5157.01228,N,00232.66565,W,1,10,1.01,149.1,M,48.6,M,,*51
$GNGGA,135209.00,5157.01214,N,00232.66532,W,1,11,0.89,147.6,M,48.6,M,,*54
$GNGGA,135210.00,5157.01206,N,00232.66488,W,1,11,0.89,147.1,M,48.6,M,,*58
$GNGGA,135211.00,5157.01224,N,00232.66482,W,1,12,0.82,146.9,M,48.6,M,,*52
$GNGGA,135212.00,5157.01218,N,00232.66448,W,1,11,0.89,147.3,M,48.6,M,,*5B
$GNGGA,135213.00,5157.01175,N,00232.66421,W,1,10,0.92,147.2,M,48.6,M,,*57
$GNGGA,135214.00,5157.01155,N,00232.66446,W,1,10,0.92,146.4,M,48.6,M,,*54
$GNGGA,135215.00,5157.01173,N,00232.66439,W,1,10,0.96,145.8,M,48.6,M,,*52
$GNGGA,135216.00,5157.01176,N,00232.66400,W,1,10,0.96,146.0,M,48.6,M,,*55
$GNGGA,135217.00,5157.01187,N,00232.66377,W,1,11,0.89,145.5,M,48.6,M,,*54
$GNGGA,135218.00,5157.01213,N,00232.66324,W,1,10,0.92,145.5,M,48.6,M,,*58
$GNGGA,135219.00,5157.01223,N,00232.66289,W,1,10,0.92,145.5,M,48.6,M,,*5C
$GNGGA,135220.00,5157.01266,N,00232.66238,W,1,10,0.92,145.8,M,48.6,M,,*50
$GNGGA,135221.00,5157.01299,N,00232.66194,W,1,10,0.92,146.2,M,48.6,M,,*5D
$GNGGA,135222.00,5157.01324,N,00232.66154,W,1,11,0.88,146.5,M,48.6,M,,*58
$GNGGA,135223.00,5157.01320,N,00232.66130,W,1,10,0.92,146.7,M,48.6,M,,*57
$GNGGA,135224.00,5157.01317,N,00232.66064,W,1,09,0.93,146.3,M,48.6,M,,*59
$GNGGA,135225.00,5157.01374,N,00232.66050,W,1,09,0.93,146.3,M,48.6,M,,*5A
$GNGGA,135226.00,5157.01418,N,00232.66055,W,1,08,1.14,146.1,M,48.6,M,,*5C
$GNGGA,135227.00,5157.01463,N,00232.66060,W,1,10,0.90,146.0,M,48.6,M,,*52
$GNGGA,135228.00,5157.01501,N,00232.66043,W,1,09,1.09,145.6,M,48.6,M,,*55
$GNGGA,135229.00,5157.01512,N,00232.66044,W,1,10,1.07,145.5,M,48.6,M,,*54
$GNGGA,135230.00,5157.01522,N,00232.66048,W,1,10,1.07,146.0,M,48.6,M,,*55
$GNGGA,135231.00,5157.01530,N,00232.66070,W,1,10,1.07,146.0,M,48.6,M,,*5C
$GNGGA,135232.00,5157.01532,N,00232.66059,W,1,10,1.07,146.3,M,48.6,M,,*55
$GNGGA,135233.00,5157.01515,N,00232.66059,W,1,10,1.07,146.6,M,48.6,M,,*54
$GNGGA,135234.00,5157.01523,N,00232.66064,W,1,11,0.88,146.8,M,48.6,M,,*51
$GNGGA,135235.00,5157.01674,N,00232.66141,W,1,11,0.88,146.5,M,48.6,M,,*5A
$GNGGA,135236.00,5157.01857,N,00232.66185,W,1,11,0.88,146.2,M,48.6,M,,*59
$GNGGA,135237.00,5157.01947,N,00232.66196,W,1,09,1.21,145.5,M,48.6,M,,*55
$GNGGA,135238.00,5157.01950,N,00232.66191,W,1,09,1.21,144.7,M,48.6,M,,*58
$GNGGA,135239.00,5157.01913,N,00232.66201,W,1,10,0.96,145.7,M,48.6,M,,*50
$GNGGA,135240.00,5157.01906,N,00232.66223,W,1,12,0.92,145.4,M,48.6,M,,*5F
$GNGGA,135241.00,5157.01903,N,00232.66229,W,1,12,0.92,145.4,M,48.6,M,,*51
$GNGGA,135242.00,5157.01895,N,00232.66222,W,1,12,0.92,145.1,M,48.6,M,,*52
$GNGGA,135243.00,5157.01886,N,00232.66223,W,1,11,0.92,144.3,M,48.6,M,,*50
$GNGGA,135244.00,5157.01877,N,00232.66221,W,1,11,0.92,143.9,M,48.6,M,,*56
$GNGGA,135245.00,5157.01851,N,00232.66197,W,1,11,0.92,144.0,M,48.6,M,,*53
$GNGGA,135246.00,5157.01835,N,00232.66184,W,1,10,1.07,143.4,M,48.6,M,,*5F
$GNGGA,135247.00,5157.01841,N,00232.66222,W,1,10,1.07,143.2,M,48.6,M,,*54
$GNGGA,135248.00,5157.01862,N,00232.66267,W,1,09,1.09,142.8,M,48.6,M,,*56
$GNGGA,135249.00,5157.01846,N,00232.66236,W,1,08,1.23,142.5,M,48.6,M,,*51
$GNGGA,135250.00,5157.01822,N,00232.66230,W,1,09,0.93,143.1,M,48.6,M,,*53
$GNGGA,135251.00,5157.01808,N,00232.66212,W,1,10,0.92,142.9,M,48.6,M,,*5A
$GNGGA,135252.00,5157.01905,N,00232.66304,W,1,12,0.82,142.2,M,48.6,M,,*5B
$GNGGA,135253.00,5157.02005,N,00232.66418,W,1,11,0.88,141.7,M,48.6,M,,*55
$GNGGA,135254.00,5157.01989,N,00232.66410,W,1,10,1.07,141.3,M,48.6,M,,*57
$GNGGA,135255.00,5157.01961,N,00232.66420,W,1,10,1.07,141.2,M,48.6,M,,*52
$GNGGA,135256.00,5157.01907,N,00232.66413,W,1,10,1.07,141.5,M,48.6,M,,*56
$GNGGA,135257.00,5157.01880,N,00232.66411,W,1,10,1.07,141.2,M,48.6,M,,*5C
$GNGGA,135258.00,5157.01841,N,00232.66404,W,1,10,1.07,140.9,M,48.6,M,,*50
$GNGGA,135259.00,5157.01794,N,00232.66358,W,1,09,1.18,140.6,M,48.6,M,,*51
$GNGGA,135300.00,5157.01771,N,00232.66359,W,1,08,1.23,140.9,M,48.6,M,,*50
$GNGGA,135301.00,5157.01745,N,00232.66336,W,1,09,1.18,141.1,M,48.6,M,,*5F
$GNGGA,135302.00,5157.01719,N,00232.66315,W,1,09,1.18,141.5,M,48.6,M,,*50
$GNGGA,135303.00,5157.01702,N,00232.66315,W,1,09,1.18,141.4,M,48.6,M,,*5A
$GNGGA,135304.00,5157.01667,N,00232.66293,W,1,10,1.07,141.0,M,48.6,M,,*52
$GNGGA,135305.00,5157.01641,N,00232.66275,W,1,10,1.07,141.1,M,48.6,M,,*5E
$GNGGA,135306.00,5157.01607,N,00232.66264,W,1,10,1.07,140.8,M,48.6,M,,*57
$GNGGA,135307.00,5157.01582,N,00232.66252,W,1,11,1.07,140.4,M,48.6,M,,*50
$GNGGA,135308.00,5157.01577,N,00232.66250,W,1,10,1.07,140.2,M,48.6,M,,*50
$GNGGA,135309.00,5157.01555,N,00232.66231,W,1,11,0.88,139.8,M,48.6,M,,*55
$GNGGA,135310.00,5157.01559,N,00232.66238,W,1,11,0.88,139.6,M,48.6,M,,*56
$GNGGA,135311.00,5157.01554,N,00232.66246,W,1,08,1.23,139.1,M,48.6,M,,*5C
$GNGGA,135312.00,5157.01531,N,00232.66222,W,1,09,1.18,139.5,M,48.6,M,,*53
$GNGGA,135313.00,5157.01515,N,00232.66189,W,1,09,1.18,139.8,M,48.6,M,,*5B
$GNGGA,135314.00,5157.01507,N,00232.66177,W,1,09,1.18,139.9,M,48.6,M,,*5F
$GNGGA,135315.00,5157.01502,N,00232.66173,W,1,09,1.18,140.2,M,48.6,M,,*5A
$GNGGA,135316.00,5157.01870,N,00232.66620,W,1,10,0.99,134.4,M,48.6,M,,*55
$GNGGA,135317.00,5157.01857,N,00232.66615,W,1,09,1.18,134.1,M,48.6,M,,*52
$GNGGA,135318.00,5157.01831,N,00232.66599,W,1,09,1.18,133.8,M,48.6,M,,*54
$GNGGA,135319.00,5157.01786,N,00232.66557,W,1,10,1.07,133.4,M,48.6,M,,*5E
$GNGGA,135320.00,5157.01754,N,00232.66520,W,1,10,1.07,132.9,M,48.6,M,,*57
$GNGGA,135321.00,5157.01735,N,00232.66514,W,1,10,1.07,132.8,M,48.6,M,,*57
$GNGGA,135322.00,5157.01744,N,00232.66514,W,1,09,1.11,132.6,M,48.6,M,,*53
$GNGGA,135323.00,5157.01754,N,00232.66516,W,1,09,1.20,132.3,M,48.6,M,,*56
$GNGGA,135324.00,5157.01757,N,00232.66519,W,1,09,1.07,132.2,M,48.6,M,,*59
$GNGGA,135325.00,5157.01743,N,00232.66538,W,1,09,1.07,132.2,M,48.6,M,,*5E
$GNGGA,135326.00,5157.01700,N,00232.66523,W,1,08,1.47,132.0,M,48.6,M,,*57
$GNGGA,135327.00,5157.01641,N,00232.66494,W,1,08,1.47,131.6,M,48.6,M,,*5A
$GNGGA,135328.00,5157.01594,N,00232.66469,W,1,07,1.52,131.4,M,48.6,M,,*55
$GNGGA,135329.00,5157.01544,N,00232.66434,W,1,08,1.47,131.1,M,48.6,M,,*5F
$GNGGA,135330.00,5157.01490,N,00232.66380,W,1,08,1.47,130.7,M,48.6,M,,*50
$GNGGA,135331.00,5157.01474,N,00232.66372,W,1,08,1.47,130.2,M,48.6,M,,*53
$GNGGA,135332.00,5157.01672,N,00232.66706,W,1,08,1.47,130.4,M,48.6,M,,*55
$GNGGA,135333.00,5157.01823,N,00232.66911,W,1,08,1.47,130.7,M,48.6,M,,*55
$GNGGA,135334.00,5157.01858,N,00232.66960,W,1,09,1.18,130.9,M,48.6,M,,*5D
$GNGGA,135335.00,5157.01872,N,00232.66986,W,1,09,1.18,131.2,M,48.6,M,,*56
$GNGGA,135336.00,5157.01866,N,00232.66989,W,1,10,1.06,130.9,M,48.6,M,,*52
$GNGGA,135337.00,5157.01849,N,00232.66963,W,1,10,1.18,130.9,M,48.6,M,,*55
$GNGGA,135338.00,5157.01827,N,00232.66924,W,1,10,1.06,130.8,M,48.6,M,,*5F
$GNGGA,135339.00,5157.01807,N,00232.66885,W,1,10,1.06,130.7,M,48.6,M,,*59
$GNGGA,135340.00,5157.01779,N,00232.66848,W,1,10,1.06,130.6,M,48.6,M,,*51
$GNGGA,135341.00,5157.01745,N,00232.66819,W,1,10,1.06,130.7,M,48.6,M,,*5A
$GNGGA,135342.00,5157.01693,N,00232.66818,W,1,10,1.06,130.4,M,48.6,M,,*51
$GNGGA,135343.00,5157.01638,N,00232.66792,W,1,09,1.18,130.2,M,48.6,M,,*5D
$GNGGA,135344.00,5157.01609,N,00232.66755,W,1,09,1.18,130.2,M,48.6,M,,*53
$GNGGA,135345.00,5157.01590,N,00232.66688,W,1,09,1.18,130.9,M,48.6,M,,*5B
$GNGGA,135346.00,5157.01583,N,00232.66600,W,1,10,0.96,131.3,M,48.6,M,,*5E
$GNGGA,135347.00,5157.01503,N,00232.66438,W,1,11,0.88,131.6,M,48.6,M,,*55
$GNGGA,135348.00,5157.01469,N,00232.66334,W,1,10,1.06,131.7,M,48.6,M,,*5B
$GNGGA,135349.00,5157.01426,N,00232.66238,W,1,11,0.88,131.6,M,48.6,M,,*5B
$GNGGA,135350.00,5157.01354,N,00232.66074,W,1,11,0.88,131.8,M,48.6,M,,*55
$GNGGA,135351.00,5157.01297,N,00232.65891,W,1,11,0.88,132.3,M,48.6,M,,*52
$GNGGA,135352.00,5157.01313,N,00232.65783,W,1,11,0.88,132.7,M,48.6,M,,*54
$GNGGA,135353.00,5157.01379,N,00232.65784,W,1,11,0.88,133.0,M,48.6,M,,*58
$GNGGA,135354.00,5157.01423,N,00232.65766,W,1,11,0.88,133.1,M,48.6,M,,*5A
$GNGGA,135355.00,5157.01446,N,00232.65711,W,1,10,0.96,133.4,M,48.6,M,,*53
$GNGGA,135356.00,5157.01427,N,00232.65638,W,1,10,0.96,133.3,M,48.6,M,,*5A
$GNGGA,135357.00,5157.01422,N,00232.65608,W,1,09,1.17,133.7,M,48.6,M,,*59
$GNGGA,135358.00,5157.01419,N,00232.65614,W,1,10,0.96,134.1,M,48.6,M,,*52
$GNGGA,135359.00,5157.01382,N,00232.65656,W,1,10,0.96,133.9,M,48.6,M,,*5F
$GNGGA,135400.00,5157.01340,N,00232.65777,W,1,10,0.96,134.6,M,48.6,M,,*50
$GNGGA,135401.00,5157.01204,N,00232.65851,W,1,10,0.96,134.9,M,48.6,M,,*54
$GNGGA,135402.00,5157.01050,N,00232.65950,W,1,10,0.96,134.7,M,48.6,M,,*5A
$GNGGA,135403.00,5157.00895,N,00232.66080,W,1,11,0.88,135.8,M,48.6,M,,*5C
$GNGGA,135404.00,5157.00706,N,00232.66177,W,1,11,0.88,135.9,M,48.6,M,,*56
$GNGGA,135405.00,5157.00505,N,00232.66300,W,1,11,0.88,136.1,M,48.6,M,,*5F
$GNGGA,135406.00,5157.00290,N,00232.66380,W,1,11,0.96,135.6,M,48.6,M,,*54
$GNGGA,135407.00,5157.00097,N,00232.66485,W,1,11,0.86,135.8,M,48.6,M,,*5D
$GNGGA,135408.00,5156.99916,N,00232.66568,W,1,11,0.99,136.0,M,48.6,M,,*54
$GNGGA,135409.00,5156.99755,N,00232.66598,W,1,09,1.10,136.9,M,48.6,M,,*53
$GNGGA,135410.00,5156.99605,N,00232.66580,W,1,11,0.99,137.1,M,48.6,M,,*56
$GNGGA,135411.00,5156.99490,N,00232.66566,W,1,11,0.99,139.2,M,48.6,M,,*5C
$GNGGA,135412.00,5156.99362,N,00232.66500,W,1,12,0.93,139.1,M,48.6,M,,*5F
$GNGGA,135413.00,5156.99257,N,00232.66470,W,1,11,0.97,139.8,M,48.6,M,,*51
$GNGGA,135414.00,5156.99135,N,00232.66464,W,1,12,0.80,140.2,M,48.6,M,,*55
$GNGGA,135415.00,5156.99054,N,00232.66541,W,1,12,0.83,140.3,M,48.6,M,,*56
$GNGGA,135416.00,5156.99057,N,00232.66572,W,1,10,1.04,140.6,M,48.6,M,,*5F
$GNGGA,135417.00,5156.99044,N,00232.66684,W,1,11,0.85,140.9,M,48.6,M,,*50
$GNGGA,135418.00,5156.99011,N,00232.66890,W,1,11,0.85,140.2,M,48.6,M,,*5F
$GNGGA,135419.00,5156.99012,N,00232.67142,W,1,12,0.83,140.2,M,48.6,M,,*5F
$GNGGA,135420.00,5156.99051,N,00232.67366,W,1,12,0.82,140.1,M,48.6,M,,*54
$GNGGA,135421.00,5156.99113,N,00232.67590,W,1,12,0.82,139.8,M,48.6,M,,*5A
$GNGGA,135422.00,5156.99217,N,00232.67762,W,1,12,0.82,139.7,M,48.6,M,,*5E
$GNGGA,135423.00,5156.99333,N,00232.67902,W,1,12,0.80,139.8,M,48.6,M,,*5D
$GNGGA,135424.00,5156.99465,N,00232.67982,W,1,12,0.80,139.7,M,48.6,M,,*59
$GNGGA,135425.00,5156.99622,N,00232.68096,W,1,12,0.82,139.9,M,48.6,M,,*56
$GNGGA,135426.00,5156.99777,N,00232.68181,W,1,12,0.82,139.5,M,48.6,M,,*5F
$GNGGA,135427.00,5156.99934,N,00232.68242,W,1,12,0.83,139.7,M,48.6,M,,*58
$GNGGA,135428.00,5157.00084,N,00232.68280,W,1,12,0.83,140.1,M,48.6,M,,*52
$GNGGA,135429.00,5157.00217,N,00232.68309,W,1,12,0.83,140.4,M,48.6,M,,*5E
$GNGGA,135430.00,5157.00371,N,00232.68350,W,1,11,0.84,140.5,M,48.6,M,,*5E
$GNGGA,135431.00,5157.00531,N,00232.68385,W,1,11,0.84,140.1,M,48.6,M,,*51
$GNGGA,135432.00,5157.00703,N,00232.68412,W,1,11,0.84,140.4,M,48.6,M,,*5D
$GNGGA,135433.00,5157.00862,N,00232.68442,W,1,12,0.82,140.3,M,48.6,M,,*53
$GNGGA,135434.00,5157.01039,N,00232.68472,W,1,12,0.82,140.7,M,48.6,M,,*54
$GNGGA,135435.00,5157.01204,N,00232.68477,W,1,12,0.80,140.8,M,48.6,M,,*51
$GNGGA,135436.00,5157.01375,N,00232.68496,W,1,12,0.80,140.9,M,48.6,M,,*5B
$GNGGA,135437.00,5157.01549,N,00232.68498,W,1,12,0.80,141.4,M,48.6,M,,*51
$GNGGA,135438.00,5157.01746,N,00232.68563,W,1,12,0.80,141.5,M,48.6,M,,*57
$GNGGA,135439.00,5157.01886,N,00232.68588,W,1,12,0.80,142.1,M,48.6,M,,*57
$GNGGA,135440.00,5157.01988,N,00232.68601,W,1,12,0.80,142.6,M,48.6,M,,*53
$GNGGA,135441.00,5157.02102,N,00232.68611,W,1,11,0.98,141.9,M,48.6,M,,*5C
$GNGGA,135442.00,5157.02217,N,00232.68611,W,1,11,0.98,141.4,M,48.6,M,,*55
$GNGGA,135443.00,5157.02360,N,00232.68642,W,1,12,0.88,140.4,M,48.6,M,,*50
$GNGGA,135444.00,5157.02471,N,00232.68766,W,1,12,0.82,139.0,M,48.6,M,,*57
$GNGGA,135445.00,5157.02561,N,00232.68898,W,1,12,0.80,138.8,M,48.6,M,,*53
$GNGGA,135446.00,5157.02656,N,00232.69051,W,1,12,0.80,140.0,M,48.6,M,,*5C
$GNGGA,135447.00,5157.02725,N,00232.69276,W,1,12,0.80,140.5,M,48.6,M,,*5A
$GNGGA,135448.00,5157.02786,N,00232.69549,W,1,12,0.80,140.3,M,48.6,M,,*51
$GNGGA,135449.00,5157.02847,N,00232.69846,W,1,12,0.80,140.1,M,48.6,M,,*52
$GNGGA,135450.00,5157.02896,N,00232.70168,W,1,12,0.80,140.0,M,48.6,M,,*5A
$GNGGA,135451.00,5157.02935,N,00232.70463,W,1,12,0.80,140.4,M,48.6,M,,*59
$GNGGA,135452.00,5157.02974,N,00232.70815,W,1,12,0.80,140.3,M,48.6,M,,*55
$GNGGA,135453.00,5157.03020,N,00232.71201,W,1,12,0.80,140.2,M,48.6,M,,*52
$GNGGA,135454.00,5157.03076,N,00232.71615,W,1,12,0.80,140.1,M,48.6,M,,*54
$GNGGA,135455.00,5157.03129,N,00232.72042,W,1,12,0.80,139.9,M,48.6,M,,*5F
$GNGGA,135456.00,5157.03181,N,00232.72488,W,1,12,0.80,139.5,M,48.6,M,,*50
$GNGGA,135457.00,5157.03241,N,00232.72948,W,1,12,0.80,139.2,M,48.6,M,,*58
$GNGGA,135458.00,5157.03302,N,00232.73404,W,1,12,0.80,138.9,M,48.6,M,,*5F
$GNGGA,135459.00,5157.03381,N,00232.73881,W,1,12,0.80,138.9,M,48.6,M,,*54
$GNGGA,135500.00,5157.03448,N,00232.74373,W,1,12,0.80,138.7,M,48.6,M,,*54
$GNGGA,135501.00,5157.03510,N,00232.74881,W,1,12,0.88,138.6,M,48.6,M,,*56
