[130] [pv@LON-IX-L-763 ~/GoogleDrive/LaptopDocuments/Personal/HAB2/annotation]$ ./combine-all 1
Running with 1 threads.
    1 image files updated
Time: 11:02:14
$GNGGA,110214.00,,,,,0,00,99.99,,,,,,*7F
    0 image files updated
    1 image files unchanged
    1 image files updated
No GPS data at 110214
Pi photo: ../tracker-home-pi/pi/photos/11/000019.jpg
    1 image files updated
Time: 11:02:26
$GNGGA,110226.00,5215.21490,N,00005.47865,W,1,04,3.84,53.3,M,45.8,M,,*61
    1 image files updated
    1 image files updated
No GPS data at 110226
Pi photo: ../tracker-home-pi/pi/photos/11/000020.jpg
    1 image files updated
Time: 11:02:39
$GNGGA,110239.00,5215.21364,N,00005.48193,W,1,05,2.47,43.8,M,45.8,M,,*69
    1 image files updated
    1 image files updated
Pi photo: ../tracker-home-pi/pi/photos/11/000021.jpg
    1 image files updated
Time: 11:02:55
$GNGGA,110255.00,5215.21187,N,00005.48161,W,1,04,2.61,39.3,M,45.8,M,,*62
    1 image files updated
    1 image files updated
Pi photo: ../tracker-home-pi/pi/photos/11/000023.jpg
    1 image files updated
Time: 11:03:07
$GNGGA,110307.00,5215.21276,N,00005.48045,W,1,05,2.44,39.7,M,45.8,M,,*6C
    1 image files updated
    1 image files updated
Pi photo: ../tracker-home-pi/pi/photos/11/000024.jpg
    1 image files updated
Time: 11:03:20
$GNGGA,110320.00,5215.21127,N,00005.48181,W,1,04,2.58,42.1,M,45.8,M,,*61
    1 image files updated
    1 image files updated
Pi photo: ../tracker-home-pi/pi/photos/11/000025.jpg
    1 image files updated
Time: 11:03:32
$GNGGA,110332.00,5215.21101,N,00005.48177,W,1,05,2.42,40.5,M,45.8,M,,*63
    1 image files updated
    1 image files updated
Pi photo: ../tracker-home-pi/pi/photos/11/000026.jpg
    1 image files updated
Time: 11:03:44
$GNGGA,110344.00,5215.21076,N,00005.48057,W,1,05,2.41,43.4,M,45.8,M,,*61
    1 image files updated
    1 image files updated
Pi photo: ../tracker-home-pi/pi/photos/11/000027.jpg
    1 image files updated
Time: 11:03:56
$GNGGA,110356.00,5215.21321,N,00005.47172,W,1,05,2.40,63.5,M,45.8,M,,*68
    1 image files updated
    1 image files updated
Pi photo: ../tracker-home-pi/pi/photos/11/000028.jpg
    1 image files updated
Time: 11:04:08
$GNGGA,110408.00,5215.21495,N,00005.47388,W,1,06,1.58,59.2,M,45.8,M,,*6C
    1 image files updated
    1 image files updated
Pi photo: ../tracker-home-pi/pi/photos/11/000029.jpg
    1 image files updated
Time: 11:04:21
$GNGGA,110421.00,5215.21659,N,00005.47377,W,1,06,1.58,54.1,M,45.8,M,,*6B
    1 image files updated
    1 image files updated
Pi photo: ../tracker-home-pi/pi/photos/11/000030.jpg
    1 image files updated
Time: 11:04:33
$GNGGA,110433.00,5215.21809,N,00005.47418,W,1,06,1.58,53.9,M,45.8,M,,*62
    1 image files updated
    1 image files updated
Pi photo: ../tracker-home-pi/pi/photos/11/000032.jpg
    1 image files updated
Time: 11:04:45
$GNGGA,110445.00,5215.21580,N,00005.47597,W,1,05,1.64,53.4,M,45.8,M,,*68
    1 image files updated
    1 image files updated
Pi photo: ../tracker-home-pi/pi/photos/11/000033.jpg
    1 image files updated
Time: 11:04:57
$GNGGA,110457.00,5215.21969,N,00005.47024,W,1,07,1.35,48.6,M,45.8,M,,*63
    1 image files updated
    1 image files updated
Pi photo: ../tracker-home-pi/pi/photos/11/000034.jpg
    1 image files updated
Time: 11:05:09
$GNGGA,110509.00,5215.21684,N,00005.47285,W,1,07,1.35,50.1,M,45.8,M,,*62
    1 image files updated
    1 image files updated
Pi photo: ../tracker-home-pi/pi/photos/11/000035.jpg
    1 image files updated
Time: 11:05:22
$GNGGA,110522.00,5215.21578,N,00005.47473,W,1,07,1.36,49.0,M,45.8,M,,*6E
    1 image files updated
    1 image files updated
Pi photo: ../tracker-home-pi/pi/photos/11/000036.jpg
    1 image files updated
Time: 11:05:34
$GNGGA,110534.00,5215.21441,N,00005.47429,W,1,07,1.36,50.3,M,45.8,M,,*66
    1 image files updated
    1 image files updated
Pi photo: ../tracker-home-pi/pi/photos/11/000037.jpg
    1 image files updated
Time: 11:05:46
$GNGGA,110546.00,5215.21440,N,00005.47464,W,1,07,1.36,53.5,M,45.8,M,,*6E
    1 image files updated
    1 image files updated
Pi photo: ../tracker-home-pi/pi/photos/11/000038.jpg
    1 image files updated
Time: 11:05:58
$GNGGA,110558.00,5215.21469,N,00005.47679,W,1,07,1.36,54.7,M,45.8,M,,*61
    1 image files updated
    1 image files updated
Pi photo: ../tracker-home-pi/pi/photos/11/000039.jpg
    1 image files updated
Time: 11:06:10
$GNGGA,110610.00,5215.21379,N,00005.47678,W,1,07,1.37,54.0,M,45.8,M,,*6F
    1 image files updated
    1 image files updated
Pi photo: ../tracker-home-pi/pi/photos/11/000040.jpg
    1 image files updated
Time: 11:06:23
$GNGGA,110623.00,5215.21318,N,00005.47778,W,1,07,1.37,52.5,M,45.8,M,,*6A
    1 image files updated
    1 image files updated
Pi photo: ../tracker-home-pi/pi/photos/11/000041.jpg
    1 image files updated
Time: 11:06:35
$GNGGA,110635.00,5215.21070,N,00005.48018,W,1,07,1.37,54.1,M,45.8,M,,*6C
    1 image files updated
    1 image files updated
Pi photo: ../tracker-home-pi/pi/photos/11/000042.jpg
    1 image files updated
Time: 11:06:48
$GNGGA,110648.00,5215.21073,N,00005.47725,W,1,07,1.38,53.5,M,45.8,M,,*6F
    1 image files updated
    1 image files updated
Pi photo: ../tracker-home-pi/pi/photos/11/000044.jpg
    1 image files updated
Time: 11:07:00
$GNGGA,110700.00,5215.20947,N,00005.47915,W,1,06,1.44,53.9,M,45.8,M,,*66
    1 image files updated
    1 image files updated
Pi photo: ../tracker-home-pi/pi/photos/11/000045.jpg
    1 image files updated
Time: 11:07:12
$GNGGA,110712.00,5215.21183,N,00005.47665,W,1,07,1.38,52.7,M,45.8,M,,*69
    1 image files updated
    1 image files updated
Pi photo: ../tracker-home-pi/pi/photos/11/000046.jpg
    1 image files updated
Time: 11:07:24
$GNGGA,110724.00,5215.21279,N,00005.47815,W,1,06,1.78,52.3,M,45.8,M,,*62
    1 image files updated
    1 image files updated
Pi photo: ../tracker-home-pi/pi/photos/11/000047.jpg
    1 image files updated
Time: 11:07:37
$GNGGA,110737.00,5215.21127,N,00005.47767,W,1,07,1.39,52.0,M,45.8,M,,*65
    1 image files updated
    1 image files updated
Pi photo: ../tracker-home-pi/pi/photos/11/000048.jpg
    1 image files updated
Time: 11:07:50
$GNGGA,110750.00,5215.21285,N,00005.47832,W,1,07,1.39,51.4,M,45.8,M,,*67
    1 image files updated
    1 image files updated
Pi photo: ../tracker-home-pi/pi/photos/11/000049.jpg
    1 image files updated
Time: 11:08:02
$GNGGA,110802.00,5215.21501,N,00005.47705,W,1,07,1.39,50.8,M,45.8,M,,*62
    1 image files updated
    1 image files updated
Pi photo: ../tracker-home-pi/pi/photos/11/000050.jpg
    1 image files updated
Time: 11:08:15
$GNGGA,110815.00,5215.21466,N,00005.47480,W,1,07,1.40,50.3,M,45.8,M,,*6F
    1 image files updated
    1 image files updated
Pi photo: ../tracker-home-pi/pi/photos/11/000052.jpg
    1 image files updated
Time: 11:08:28
$GNGGA,110828.00,5215.21714,N,00005.47356,W,1,06,1.86,50.6,M,45.8,M,,*65
    1 image files updated
    1 image files updated
Pi photo: ../tracker-home-pi/pi/photos/11/000053.jpg
    1 image files updated
Time: 11:08:40
$GNGGA,110840.00,5215.21621,N,00005.47459,W,1,06,1.43,52.0,M,45.8,M,,*69
    1 image files updated
    1 image files updated
Pi photo: ../tracker-home-pi/pi/photos/11/000054.jpg
    1 image files updated
Time: 11:08:53
$GNGGA,110853.00,5215.21493,N,00005.47687,W,1,07,1.40,53.1,M,45.8,M,,*63
    1 image files updated
    1 image files updated
Pi photo: ../tracker-home-pi/pi/photos/11/000055.jpg
    1 image files updated
Time: 11:09:05
$GNGGA,110905.00,5215.21225,N,00005.47643,W,1,06,1.88,49.1,M,45.8,M,,*6C
    1 image files updated
    1 image files updated
Pi photo: ../tracker-home-pi/pi/photos/11/000056.jpg
    1 image files updated
Time: 11:09:19
$GNGGA,110919.00,5215.21611,N,00005.47537,W,1,07,1.41,52.8,M,45.8,M,,*65
    1 image files updated
    1 image files updated
Pi photo: ../tracker-home-pi/pi/photos/11/000057.jpg
    1 image files updated
Time: 11:09:31
$GNGGA,110931.00,5215.21427,N,00005.47439,W,1,07,1.41,55.6,M,45.8,M,,*6E
    1 image files updated
    1 image files updated
Pi photo: ../tracker-home-pi/pi/photos/11/000058.jpg
    1 image files updated
Time: 11:09:43
$GNGGA,110943.00,5215.21575,N,00005.47195,W,1,07,1.42,55.3,M,45.8,M,,*68
    1 image files updated
    1 image files updated
Pi photo: ../tracker-home-pi/pi/photos/11/000059.jpg
    1 image files updated
Time: 11:09:56
$GNGGA,110956.00,5215.21546,N,00005.47221,W,1,07,1.42,58.3,M,45.8,M,,*6D
    1 image files updated
    1 image files updated
Pi photo: ../tracker-home-pi/pi/photos/11/000061.jpg
    1 image files updated
Time: 11:10:09
$GNGGA,111009.00,5215.21608,N,00005.47528,W,1,07,1.42,57.5,M,45.8,M,,*61
    1 image files updated
    1 image files updated
Pi photo: ../tracker-home-pi/pi/photos/11/000062.jpg
    1 image files updated
Time: 11:10:22
$GNGGA,111022.00,5215.21574,N,00005.47588,W,1,07,1.42,56.6,M,45.8,M,,*68
    1 image files updated
    1 image files updated
Pi photo: ../tracker-home-pi/pi/photos/11/000063.jpg
    1 image files updated
Time: 11:10:34
$GNGGA,111034.00,5215.21508,N,00005.47726,W,1,07,1.43,52.9,M,45.8,M,,*68
    1 image files updated
    1 image files updated
Pi photo: ../tracker-home-pi/pi/photos/11/000064.jpg
    1 image files updated
Time: 11:10:46
$GNGGA,111046.00,5215.21423,N,00005.47672,W,1,07,1.43,52.6,M,45.8,M,,*6A
    1 image files updated
    1 image files updated
Pi photo: ../tracker-home-pi/pi/photos/11/000065.jpg
    1 image files updated
Time: 11:10:59
$GNGGA,111059.00,5215.21269,N,00005.47849,W,1,07,1.43,51.6,M,45.8,M,,*69
    1 image files updated
    1 image files updated
Pi photo: ../tracker-home-pi/pi/photos/11/000066.jpg
    1 image files updated
Time: 11:11:13
$GNGGA,111113.00,5215.21300,N,00005.47658,W,1,07,1.44,51.5,M,45.8,M,,*62
    1 image files updated
    1 image files updated
Pi photo: ../tracker-home-pi/pi/photos/11/000067.jpg
    1 image files updated
Time: 11:11:25
$GNGGA,111125.00,5215.21374,N,00005.47718,W,1,07,1.44,50.5,M,45.8,M,,*60
    1 image files updated
    1 image files updated
Pi photo: ../tracker-home-pi/pi/photos/11/000069.jpg
    1 image files updated
Time: 11:11:37
$GNGGA,111137.00,5215.21443,N,00005.47606,W,1,07,1.44,50.2,M,45.8,M,,*69
    1 image files updated
    1 image files updated
Pi photo: ../tracker-home-pi/pi/photos/11/000070.jpg
    1 image files updated
Time: 11:11:50
$GNGGA,111150.00,5215.21504,N,00005.47530,W,1,06,1.47,50.0,M,45.8,M,,*6C
    1 image files updated
    1 image files updated
Pi photo: ../tracker-home-pi/pi/photos/11/000071.jpg
    1 image files updated
Time: 11:12:02
$GNGGA,111202.00,5215.21556,N,00005.47644,W,1,07,1.45,48.8,M,45.8,M,,*6D
    1 image files updated
    1 image files updated
Pi photo: ../tracker-home-pi/pi/photos/11/000072.jpg
    1 image files updated
Time: 11:12:15
$GNGGA,111215.00,5215.21455,N,00005.47742,W,1,07,1.45,50.2,M,45.8,M,,*6D
    1 image files updated
    1 image files updated
Pi photo: ../tracker-home-pi/pi/photos/11/000073.jpg
    1 image files updated
Time: 11:12:27
$GNGGA,111227.00,5215.21590,N,00005.47724,W,1,07,1.45,50.4,M,45.8,M,,*62
    1 image files updated
    1 image files updated
Pi photo: ../tracker-home-pi/pi/photos/11/000074.jpg
    1 image files updated
Time: 11:12:40
$GNGGA,111240.00,5215.21544,N,00005.47656,W,1,08,1.42,52.1,M,45.8,M,,*61
    1 image files updated
    1 image files updated
Pi photo: ../tracker-home-pi/pi/photos/11/000075.jpg
    1 image files updated
Time: 11:12:53
$GNGGA,111253.00,5215.21583,N,00005.47549,W,1,08,1.42,51.5,M,45.8,M,,*62
    1 image files updated
    1 image files updated
Pi photo: ../tracker-home-pi/pi/photos/11/000076.jpg
    1 image files updated
Time: 11:13:06
$GNGGA,111306.00,5215.21472,N,00005.47559,W,1,07,1.57,49.2,M,45.8,M,,*68
    1 image files updated
    1 image files updated
Pi photo: ../tracker-home-pi/pi/photos/11/000078.jpg
    1 image files updated
Time: 11:13:19
$GNGGA,111319.00,5215.21359,N,00005.47754,W,1,08,1.43,48.5,M,45.8,M,,*6B
    1 image files updated
    1 image files updated
Pi photo: ../tracker-home-pi/pi/photos/11/000079.jpg
    1 image files updated
Time: 11:13:32
$GNGGA,111332.00,5215.21411,N,00005.47654,W,1,07,1.58,51.1,M,45.8,M,,*61
    1 image files updated
    1 image files updated
Pi photo: ../tracker-home-pi/pi/photos/11/000080.jpg
    1 image files updated
Time: 11:13:44
$GNGGA,111344.00,5215.21351,N,00005.47765,W,1,07,1.58,51.7,M,45.8,M,,*66
    1 image files updated
    1 image files updated
Pi photo: ../tracker-home-pi/pi/photos/11/000081.jpg
    1 image files updated
Time: 11:13:57
$GNGGA,111357.00,5215.21320,N,00005.47644,W,1,08,1.44,51.3,M,45.8,M,,*66
    1 image files updated
    1 image files updated
Pi photo: ../tracker-home-pi/pi/photos/11/000082.jpg
    1 image files updated
Time: 11:14:10
$GNGGA,111410.00,5215.21401,N,00005.47727,W,1,08,1.44,50.9,M,45.8,M,,*69
    1 image files updated
    1 image files updated
Pi photo: ../tracker-home-pi/pi/photos/11/000083.jpg
    1 image files updated
Time: 11:14:23
$GNGGA,111423.00,5215.21558,N,00005.47626,W,1,08,1.44,51.9,M,45.8,M,,*65
    1 image files updated
    1 image files updated
Pi photo: ../tracker-home-pi/pi/photos/11/000085.jpg
    1 image files updated
Time: 11:14:36
$GNGGA,111436.00,5215.21577,N,00005.47409,W,1,09,1.29,52.9,M,45.8,M,,*6A
    1 image files updated
    1 image files updated
Pi photo: ../tracker-home-pi/pi/photos/11/000086.jpg
    1 image files updated
Time: 11:14:48
$GNGGA,111448.00,5215.21554,N,00005.47487,W,1,09,1.29,51.0,M,45.8,M,,*6E
    1 image files updated
    1 image files updated
Pi photo: ../tracker-home-pi/pi/photos/11/000087.jpg
    1 image files updated
Time: 11:15:02
$GNGGA,111502.00,5215.21485,N,00005.47492,W,1,09,1.29,51.3,M,45.8,M,,*6B
    1 image files updated
    1 image files updated
Pi photo: ../tracker-home-pi/pi/photos/11/000088.jpg
    1 image files updated
Time: 11:15:14
$GNGGA,111514.00,5215.21495,N,00005.47577,W,1,09,1.29,50.7,M,45.8,M,,*62
    1 image files updated
    1 image files updated
Pi photo: ../tracker-home-pi/pi/photos/11/000089.jpg
    1 image files updated
Time: 11:15:28
$GNGGA,111528.00,5215.21532,N,00005.47590,W,1,09,1.30,50.3,M,45.8,M,,*64
    1 image files updated
    1 image files updated
Pi photo: ../tracker-home-pi/pi/photos/11/000090.jpg
    1 image files updated
Time: 11:15:40
$GNGGA,111540.00,5215.21506,N,00005.47533,W,1,09,1.30,48.7,M,45.8,M,,*69
    1 image files updated
    1 image files updated
Pi photo: ../tracker-home-pi/pi/photos/11/000091.jpg
    1 image files updated
Time: 11:15:53
$GNGGA,111553.00,5215.21498,N,00005.47581,W,1,09,1.30,49.3,M,45.8,M,,*61
    1 image files updated
    1 image files updated
Pi photo: ../tracker-home-pi/pi/photos/11/000093.jpg
    1 image files updated
Time: 11:16:05
$GNGGA,111605.00,5215.21591,N,00005.47575,W,1,09,1.30,48.1,M,45.8,M,,*61
    1 image files updated
    1 image files updated
Pi photo: ../tracker-home-pi/pi/photos/11/000094.jpg
    1 image files updated
Time: 11:16:18
$GNGGA,111618.00,5215.21616,N,00005.47584,W,1,09,1.30,48.7,M,45.8,M,,*69
    1 image files updated
    1 image files updated
Pi photo: ../tracker-home-pi/pi/photos/11/000095.jpg
    1 image files updated
Time: 11:16:31
$GNGGA,111631.00,5215.21449,N,00005.47582,W,1,09,1.30,48.6,M,45.8,M,,*6D
    1 image files updated
    1 image files updated
Pi photo: ../tracker-home-pi/pi/photos/11/000096.jpg
    1 image files updated
Time: 11:16:44
$GNGGA,111644.00,5215.21477,N,00005.47618,W,1,10,1.28,50.6,M,45.8,M,,*6A
    1 image files updated
    1 image files updated
Pi photo: ../tracker-home-pi/pi/photos/11/000097.jpg
    1 image files updated
Time: 11:16:56
$GNGGA,111656.00,5215.21695,N,00005.47475,W,1,10,1.28,52.2,M,45.8,M,,*68
    1 image files updated
    1 image files updated
Pi photo: ../tracker-home-pi/pi/photos/11/000098.jpg
    1 image files updated
Time: 11:17:09
$GNGGA,111709.00,5215.21709,N,00005.47923,W,1,10,1.28,53.6,M,45.8,M,,*6C
    1 image files updated
    1 image files updated
Pi photo: ../tracker-home-pi/pi/photos/11/000099.jpg
    1 image files updated
Time: 11:17:21
$GNGGA,111721.00,5215.21366,N,00005.47508,W,1,10,1.28,51.1,M,45.8,M,,*6B
    1 image files updated
    1 image files updated
Pi photo: ../tracker-home-pi/pi/photos/11/000101.jpg
    1 image files updated
Time: 11:17:33
$GNGGA,111733.00,5215.21388,N,00005.47481,W,1,10,1.28,50.9,M,45.8,M,,*61
    1 image files updated
    1 image files updated
Pi photo: ../tracker-home-pi/pi/photos/11/000102.jpg
    1 image files updated
Time: 11:17:47
$GNGGA,111747.00,5215.21463,N,00005.47535,W,1,10,1.28,49.3,M,45.8,M,,*6C
    1 image files updated
    1 image files updated
Pi photo: ../tracker-home-pi/pi/photos/11/000103.jpg
    1 image files updated
Time: 11:17:59
$GNGGA,111759.00,5215.21532,N,00005.47632,W,1,10,0.93,49.7,M,45.8,M,,*67
    1 image files updated
    1 image files updated
Pi photo: ../tracker-home-pi/pi/photos/11/000104.jpg
    1 image files updated
Time: 11:18:11
$GNGGA,111811.00,5215.21454,N,00005.47604,W,1,10,0.88,50.4,M,45.8,M,,*61
    1 image files updated
    1 image files updated
Pi photo: ../tracker-home-pi/pi/photos/11/000105.jpg
    1 image files updated
Time: 11:18:24
$GNGGA,111824.00,5215.21496,N,00005.47841,W,1,10,0.93,51.3,M,45.8,M,,*6A
    1 image files updated
    1 image files updated
Pi photo: ../tracker-home-pi/pi/photos/11/000106.jpg
    1 image files updated
Time: 11:18:36
$GNGGA,111836.00,5215.21530,N,00005.47705,W,1,11,0.86,51.4,M,45.8,M,,*69
    1 image files updated
    1 image files updated
Pi photo: ../tracker-home-pi/pi/photos/11/000107.jpg
    1 image files updated
Time: 11:18:49
$GNGGA,111849.00,5215.21552,N,00005.47813,W,1,12,0.79,50.9,M,45.8,M,,*62
    1 image files updated
    1 image files updated
Pi photo: ../tracker-home-pi/pi/photos/11/000108.jpg
    1 image files updated
Time: 11:19:01
$GNGGA,111901.00,5215.21457,N,00005.47924,W,1,12,0.79,51.0,M,45.8,M,,*66
    1 image files updated
    1 image files updated
Pi photo: ../tracker-home-pi/pi/photos/11/000109.jpg
    1 image files updated
Time: 11:19:15
$GNGGA,111915.00,5215.21488,N,00005.47959,W,1,12,0.79,52.2,M,45.8,M,,*6A
    1 image files updated
    1 image files updated
Pi photo: ../tracker-home-pi/pi/photos/11/000111.jpg
    1 image files updated
Time: 11:19:27
$GNGGA,111927.00,5215.21493,N,00005.47916,W,1,12,0.79,50.7,M,45.8,M,,*6D
    1 image files updated
    1 image files updated
Pi photo: ../tracker-home-pi/pi/photos/11/000112.jpg
    1 image files updated
Time: 11:19:40
$GNGGA,111940.00,5215.21297,N,00005.47759,W,1,11,0.81,51.6,M,45.8,M,,*6F
    1 image files updated
    1 image files updated
Pi photo: ../tracker-home-pi/pi/photos/11/000113.jpg
    1 image files updated
Time: 11:19:52
$GNGGA,111952.00,5215.21334,N,00005.47733,W,1,11,0.81,51.2,M,45.8,M,,*6C
    1 image files updated
    1 image files updated
Pi photo: ../tracker-home-pi/pi/photos/11/000114.jpg
    1 image files updated
Time: 11:20:04
$GNGGA,112004.00,5215.21389,N,00005.47613,W,1,12,0.79,50.2,M,45.8,M,,*65
    1 image files updated
    1 image files updated
Pi photo: ../tracker-home-pi/pi/photos/11/000115.jpg
    1 image files updated
Time: 11:20:18
$GNGGA,112018.00,5215.21421,N,00005.47560,W,1,12,0.81,51.6,M,45.8,M,,*68
    1 image files updated
    1 image files updated
Pi photo: ../tracker-home-pi/pi/photos/11/000116.jpg
    1 image files updated
Time: 11:20:30
$GNGGA,112030.00,5215.21419,N,00005.47545,W,1,12,0.79,51.8,M,45.8,M,,*67
    1 image files updated
    1 image files updated
Pi photo: ../tracker-home-pi/pi/photos/11/000117.jpg
    1 image files updated
Time: 11:20:43
$GNGGA,112043.00,5215.21443,N,00005.47516,W,1,12,0.79,50.7,M,45.8,M,,*64
    1 image files updated
    1 image files updated
Pi photo: ../tracker-home-pi/pi/photos/11/000119.jpg
    1 image files updated
Time: 11:20:55
$GNGGA,112055.00,5215.21548,N,00005.47616,W,1,11,0.83,49.6,M,45.8,M,,*65
    1 image files updated
    1 image files updated
Pi photo: ../tracker-home-pi/pi/photos/11/000120.jpg
    1 image files updated
Time: 11:21:08
$GNGGA,112108.00,5215.21482,N,00005.47712,W,1,12,0.81,50.2,M,45.8,M,,*63
    1 image files updated
    1 image files updated
Pi photo: ../tracker-home-pi/pi/photos/11/000121.jpg
    1 image files updated
Time: 11:21:20
$GNGGA,112120.00,5215.21460,N,00005.47664,W,1,12,0.79,50.7,M,45.8,M,,*67
    1 image files updated
    1 image files updated
Pi photo: ../tracker-home-pi/pi/photos/11/000122.jpg
    1 image files updated
Time: 11:21:32
$GNGGA,112132.00,5215.21444,N,00005.47539,W,1,12,0.81,50.0,M,45.8,M,,*69
    1 image files updated
    1 image files updated
Pi photo: ../tracker-home-pi/pi/photos/11/000123.jpg
    1 image files updated
Time: 11:21:44
$GNGGA,112144.00,5215.21508,N,00005.47642,W,1,12,0.79,49.6,M,45.8,M,,*67
    1 image files updated
    1 image files updated
Pi photo: ../tracker-home-pi/pi/photos/11/000124.jpg
    1 image files updated
Time: 11:21:57
$GNGGA,112157.00,5215.21457,N,00005.47508,W,1,12,0.79,47.5,M,45.8,M,,*6E
    1 image files updated
    1 image files updated
Pi photo: ../tracker-home-pi/pi/photos/11/000125.jpg
    1 image files updated
Time: 11:22:09
$GNGGA,112209.00,5215.21438,N,00005.47473,W,1,12,0.81,46.1,M,45.8,M,,*60
    1 image files updated
    1 image files updated
Pi photo: ../tracker-home-pi/pi/photos/11/000126.jpg
    1 image files updated
Time: 11:22:21
$GNGGA,112221.00,5215.21502,N,00005.47487,W,1,11,0.81,45.5,M,45.8,M,,*6D
    1 image files updated
    1 image files updated
Pi photo: ../tracker-home-pi/pi/photos/11/000127.jpg
    1 image files updated
Time: 11:22:34
$GNGGA,112234.00,5215.21487,N,00005.47414,W,1,12,0.80,46.0,M,45.8,M,,*6B
    1 image files updated
    1 image files updated
Pi photo: ../tracker-home-pi/pi/photos/11/000129.jpg
    1 image files updated
Time: 11:22:46
$GNGGA,112246.00,5215.21548,N,00005.47509,W,1,12,0.80,48.5,M,45.8,M,,*6A
    1 image files updated
    1 image files updated
Pi photo: ../tracker-home-pi/pi/photos/11/000130.jpg
    1 image files updated
Time: 11:22:58
$GNGGA,112258.00,5215.21491,N,00005.47487,W,1,12,0.81,48.2,M,45.8,M,,*61
    1 image files updated
    1 image files updated
Pi photo: ../tracker-home-pi/pi/photos/11/000131.jpg
    1 image files updated
Time: 11:23:12
$GNGGA,112312.00,5215.21341,N,00005.47677,W,1,12,0.82,47.9,M,45.8,M,,*6E
    1 image files updated
    1 image files updated
Pi photo: ../tracker-home-pi/pi/photos/11/000132.jpg
    1 image files updated
Time: 11:23:24
$GNGGA,112324.00,5215.21524,N,00005.47535,W,1,12,0.78,48.7,M,45.8,M,,*6F
    1 image files updated
    1 image files updated
Pi photo: ../tracker-home-pi/pi/photos/11/000133.jpg
    1 image files updated
Time: 11:23:36
$GNGGA,112336.00,5215.21562,N,00005.47568,W,1,12,0.78,49.7,M,45.8,M,,*67
    1 image files updated
    1 image files updated
Pi photo: ../tracker-home-pi/pi/photos/11/000134.jpg
    1 image files updated
Time: 11:23:49
$GNGGA,112349.00,5215.21598,N,00005.47646,W,1,12,0.80,50.6,M,45.8,M,,*6B
    1 image files updated
    1 image files updated
Pi photo: ../tracker-home-pi/pi/photos/11/000135.jpg
    1 image files updated
Time: 11:24:01
$GNGGA,112401.00,5215.21566,N,00005.47743,W,1,12,0.80,49.7,M,45.8,M,,*6C
    1 image files updated
    1 image files updated
Pi photo: ../tracker-home-pi/pi/photos/11/000136.jpg
    1 image files updated
Time: 11:24:15
$GNGGA,112415.00,5215.21527,N,00005.47717,W,1,12,0.78,49.5,M,45.8,M,,*68
    1 image files updated
    1 image files updated
Pi photo: ../tracker-home-pi/pi/photos/11/000138.jpg
    1 image files updated
Time: 11:24:27
$GNGGA,112427.00,5215.21433,N,00005.47516,W,1,11,0.84,46.3,M,45.8,M,,*67
    1 image files updated
    1 image files updated
Pi photo: ../tracker-home-pi/pi/photos/11/000139.jpg
    1 image files updated
Time: 11:24:40
$GNGGA,112440.00,5215.21492,N,00005.47615,W,1,12,0.77,46.9,M,45.8,M,,*68
    1 image files updated
    1 image files updated
Pi photo: ../tracker-home-pi/pi/photos/11/000140.jpg
    1 image files updated
Time: 11:24:52
$GNGGA,112452.00,5215.21409,N,00005.47642,W,1,12,0.78,46.1,M,45.8,M,,*6C
    1 image files updated
    1 image files updated
Pi photo: ../tracker-home-pi/pi/photos/11/000141.jpg
    1 image files updated
Time: 11:25:06
$GNGGA,112506.00,5215.21347,N,00005.47473,W,1,12,0.75,44.7,M,45.8,M,,*68
    1 image files updated
    1 image files updated
Pi photo: ../tracker-home-pi/pi/photos/11/000142.jpg
    1 image files updated
Time: 11:25:18
$GNGGA,112518.00,5215.21431,N,00005.47542,W,1,12,0.75,46.2,M,45.8,M,,*65
    1 image files updated
    1 image files updated
Pi photo: ../tracker-home-pi/pi/photos/11/000143.jpg
    1 image files updated
Time: 11:25:30
$GNGGA,112530.00,5215.21421,N,00005.47604,W,1,12,0.75,46.9,M,45.8,M,,*64
    1 image files updated
    1 image files updated
Pi photo: ../tracker-home-pi/pi/photos/11/000144.jpg
    1 image files updated
Time: 11:25:42
$GNGGA,112542.00,5215.21454,N,00005.47604,W,1,12,0.75,46.1,M,45.8,M,,*6B
    1 image files updated
    1 image files updated
Pi photo: ../tracker-home-pi/pi/photos/11/000145.jpg
    1 image files updated
Time: 11:25:54
$GNGGA,112554.00,5215.21470,N,00005.47543,W,1,12,0.75,46.5,M,45.8,M,,*6E
    1 image files updated
    1 image files updated
Pi photo: ../tracker-home-pi/pi/photos/11/000147.jpg
    1 image files updated
Time: 11:26:07
$GNGGA,112607.00,5215.21459,N,00005.47478,W,1,12,0.78,45.5,M,45.8,M,,*67
    1 image files updated
    1 image files updated
Pi photo: ../tracker-home-pi/pi/photos/11/000148.jpg
    1 image files updated
Time: 11:26:19
$GNGGA,112619.00,5215.21441,N,00005.47671,W,1,12,0.78,47.7,M,45.8,M,,*6A
    1 image files updated
    1 image files updated
Pi photo: ../tracker-home-pi/pi/photos/11/000149.jpg
    1 image files updated
Time: 11:26:31
$GNGGA,112631.00,5215.21394,N,00005.47551,W,1,12,0.78,45.5,M,45.8,M,,*6E
    1 image files updated
    1 image files updated
Pi photo: ../tracker-home-pi/pi/photos/11/000150.jpg
    1 image files updated
Time: 11:26:46
$GNGGA,112646.00,5215.21499,N,00005.47578,W,1,12,0.75,45.0,M,45.8,M,,*67
    1 image files updated
    1 image files updated
Pi photo: ../tracker-home-pi/pi/photos/11/000151.jpg
    1 image files updated
Time: 11:26:58
$GNGGA,112658.00,5215.21537,N,00005.47557,W,1,12,0.75,44.6,M,45.8,M,,*67
    1 image files updated
    1 image files updated
Pi photo: ../tracker-home-pi/pi/photos/11/000152.jpg
    1 image files updated
Time: 11:27:10
$GNGGA,112710.00,5215.21574,N,00005.47592,W,1,12,0.78,44.8,M,45.8,M,,*67
    1 image files updated
    1 image files updated
Pi photo: ../tracker-home-pi/pi/photos/11/000153.jpg
    1 image files updated
Time: 11:27:22
$GNGGA,112722.00,5215.21586,N,00005.47647,W,1,12,0.78,44.5,M,45.8,M,,*6D
    1 image files updated
    1 image files updated
Pi photo: ../tracker-home-pi/pi/photos/11/000154.jpg
    1 image files updated
Time: 11:27:36
$GNGGA,112736.00,5215.21528,N,00005.47690,W,1,12,0.78,45.0,M,45.8,M,,*62
    1 image files updated
    1 image files updated
Pi photo: ../tracker-home-pi/pi/photos/11/000156.jpg
    1 image files updated
Time: 11:27:48
$GNGGA,112748.00,5215.21479,N,00005.47734,W,1,10,0.89,47.3,M,45.8,M,,*6C
    1 image files updated
    1 image files updated
Pi photo: ../tracker-home-pi/pi/photos/11/000157.jpg
    1 image files updated
Time: 11:28:00
$GNGGA,112800.00,5215.21468,N,00005.47724,W,1,11,0.81,48.2,M,45.8,M,,*69
    1 image files updated
    1 image files updated
Pi photo: ../tracker-home-pi/pi/photos/11/000158.jpg
    1 image files updated
Time: 11:28:13
$GNGGA,112813.00,5215.21523,N,00005.47642,W,1,12,0.86,48.4,M,45.8,M,,*66
    1 image files updated
    1 image files updated
Pi photo: ../tracker-home-pi/pi/photos/11/000159.jpg
    1 image files updated
Time: 11:28:25
$GNGGA,112825.00,5215.21401,N,00005.47742,W,1,12,0.80,47.4,M,45.8,M,,*6A
    1 image files updated
    1 image files updated
Pi photo: ../tracker-home-pi/pi/photos/11/000160.jpg
    1 image files updated
Time: 11:28:37
$GNGGA,112837.00,5215.21394,N,00005.47778,W,1,12,0.80,47.5,M,45.8,M,,*6A
    1 image files updated
    1 image files updated
Pi photo: ../tracker-home-pi/pi/photos/11/000161.jpg
    1 image files updated
Time: 11:28:50
$GNGGA,112850.00,5215.21439,N,00005.47707,W,1,12,0.80,48.4,M,45.8,M,,*6D
    1 image files updated
    1 image files updated
Pi photo: ../tracker-home-pi/pi/photos/11/000162.jpg
    1 image files updated
Time: 11:29:03
$GNGGA,112903.00,5215.21495,N,00005.47604,W,1,12,0.81,48.2,M,45.8,M,,*69
    1 image files updated
    1 image files updated
Pi photo: ../tracker-home-pi/pi/photos/11/000164.jpg
    1 image files updated
Time: 11:29:15
$GNGGA,112915.00,5215.21423,N,00005.47743,W,1,12,0.78,50.0,M,45.8,M,,*6C
    1 image files updated
    1 image files updated
Pi photo: ../tracker-home-pi/pi/photos/11/000165.jpg
    1 image files updated
Time: 11:29:27
$GNGGA,112927.00,5215.21408,N,00005.47660,W,1,12,0.81,46.5,M,45.8,M,,*60
    1 image files updated
    1 image files updated
Pi photo: ../tracker-home-pi/pi/photos/11/000166.jpg
    1 image files updated
Time: 11:29:40
$GNGGA,112940.00,5215.21475,N,00005.47487,W,1,11,0.86,43.6,M,45.8,M,,*62
    1 image files updated
    1 image files updated
Pi photo: ../tracker-home-pi/pi/photos/11/000167.jpg
    1 image files updated
Time: 11:29:52
$GNGGA,112952.00,5215.21486,N,00005.47549,W,1,12,0.83,45.0,M,45.8,M,,*68
    1 image files updated
    1 image files updated
Pi photo: ../tracker-home-pi/pi/photos/11/000168.jpg
    1 image files updated
Time: 11:30:06
$GNGGA,113006.00,5215.21490,N,00005.47593,W,1,12,0.78,44.9,M,45.8,M,,*6D
    1 image files updated
    1 image files updated
Pi photo: ../tracker-home-pi/pi/photos/11/000169.jpg
    1 image files updated
Time: 11:30:18
$GNGGA,113018.00,5215.21504,N,00005.47596,W,1,12,0.78,46.5,M,45.8,M,,*65
    1 image files updated
    1 image files updated
Pi photo: ../tracker-home-pi/pi/photos/11/000170.jpg
    1 image files updated
Time: 11:30:30
$GNGGA,113030.00,5215.21466,N,00005.47645,W,1,12,0.78,47.0,M,45.8,M,,*63
    1 image files updated
    1 image files updated
Pi photo: ../tracker-home-pi/pi/photos/11/000171.jpg
    1 image files updated
Time: 11:30:42
$GNGGA,113042.00,5215.21567,N,00005.47409,W,1,12,0.78,44.7,M,45.8,M,,*68
    1 image files updated
    1 image files updated
Pi photo: ../tracker-home-pi/pi/photos/11/000172.jpg
    1 image files updated
Time: 11:30:54
$GNGGA,113054.00,5215.21522,N,00005.47500,W,1,12,0.78,44.9,M,45.8,M,,*68
    1 image files updated
    1 image files updated
Pi photo: ../tracker-home-pi/pi/photos/11/000173.jpg
    1 image files updated
Time: 11:31:07
$GNGGA,113107.00,5215.21523,N,00005.47450,W,1,12,0.78,42.5,M,45.8,M,,*60
    1 image files updated
    1 image files updated
Pi photo: ../tracker-home-pi/pi/photos/11/000175.jpg
    1 image files updated
Time: 11:31:19
$GNGGA,113119.00,5215.21431,N,00005.47338,W,1,11,0.81,43.5,M,45.8,M,,*60
    1 image files updated
    1 image files updated
Pi photo: ../tracker-home-pi/pi/photos/11/000176.jpg
    1 image files updated
Time: 11:31:31
$GNGGA,113131.00,5215.21575,N,00005.47449,W,1,08,1.08,44.5,M,45.8,M,,*65
    1 image files updated
    1 image files updated
Pi photo: ../tracker-home-pi/pi/photos/11/000177.jpg
    1 image files updated
Time: 11:31:45
$GNGGA,113145.00,5215.21534,N,00005.47553,W,1,12,0.79,45.5,M,45.8,M,,*64
    1 image files updated
    1 image files updated
Pi photo: ../tracker-home-pi/pi/photos/11/000178.jpg
    1 image files updated
Time: 11:31:57
$GNGGA,113157.00,5215.21454,N,00005.47422,W,1,12,0.79,46.1,M,45.8,M,,*60
    1 image files updated
    1 image files updated
Pi photo: ../tracker-home-pi/pi/photos/11/000179.jpg
    1 image files updated
Time: 11:32:09
$GNGGA,113209.00,5215.21329,N,00005.47423,W,1,11,0.88,43.5,M,45.8,M,,*68
    1 image files updated
    1 image files updated
Pi photo: ../tracker-home-pi/pi/photos/11/000180.jpg
    1 image files updated
Time: 11:32:21
$GNGGA,113221.00,5215.21357,N,00005.47395,W,1,12,0.88,43.6,M,45.8,M,,*61
    1 image files updated
    1 image files updated
Pi photo: ../tracker-home-pi/pi/photos/11/000181.jpg
    1 image files updated
Time: 11:32:33
$GNGGA,113233.00,5215.21458,N,00005.47534,W,1,12,0.79,44.0,M,45.8,M,,*68
    1 image files updated
    1 image files updated
Pi photo: ../tracker-home-pi/pi/photos/11/000182.jpg
    1 image files updated
Time: 11:32:46
$GNGGA,113246.00,5215.21480,N,00005.47592,W,1,12,0.79,44.9,M,45.8,M,,*6A
    1 image files updated
    1 image files updated
Pi photo: ../tracker-home-pi/pi/photos/11/000184.jpg
    1 image files updated
Time: 11:32:59
$GNGGA,113259.00,5215.21461,N,00005.47660,W,1,12,0.82,45.4,M,45.8,M,,*6D
    1 image files updated
    1 image files updated
Pi photo: ../tracker-home-pi/pi/photos/11/000185.jpg
    1 image files updated
Time: 11:33:11
$GNGGA,113311.00,5215.21523,N,00005.47656,W,1,12,0.79,44.4,M,45.8,M,,*67
    1 image files updated
    1 image files updated
Pi photo: ../tracker-home-pi/pi/photos/11/000186.jpg
    1 image files updated
Time: 11:33:24
$GNGGA,113324.00,5215.21516,N,00005.47427,W,1,12,0.79,43.0,M,45.8,M,,*60
    1 image files updated
    1 image files updated
Pi photo: ../tracker-home-pi/pi/photos/11/000187.jpg
    1 image files updated
Time: 11:33:36
$GNGGA,113336.00,5215.21401,N,00005.47599,W,1,12,0.79,41.4,M,45.8,M,,*66
    1 image files updated
    1 image files updated
Pi photo: ../tracker-home-pi/pi/photos/11/000188.jpg
    1 image files updated
Time: 11:33:48
$GNGGA,113348.00,5215.21416,N,00005.47602,W,1,12,0.79,43.2,M,45.8,M,,*6C
    1 image files updated
    1 image files updated
Pi photo: ../tracker-home-pi/pi/photos/11/000189.jpg
    1 image files updated
Time: 11:34:00
$GNGGA,113400.00,5215.21452,N,00005.47510,W,1,12,0.79,43.8,M,45.8,M,,*6D
    1 image files updated
    1 image files updated
Pi photo: ../tracker-home-pi/pi/photos/11/000190.jpg
    1 image files updated
Time: 11:34:13
$GNGGA,113413.00,5215.21426,N,00005.47503,W,1,12,0.79,44.4,M,45.8,M,,*65
    1 image files updated
    1 image files updated
Pi photo: ../tracker-home-pi/pi/photos/11/000191.jpg
    1 image files updated
Time: 11:34:25
$GNGGA,113425.00,5215.21432,N,00005.47489,W,1,12,0.79,44.6,M,45.8,M,,*64
    1 image files updated
    1 image files updated
Pi photo: ../tracker-home-pi/pi/photos/11/000192.jpg
    1 image files updated
Time: 11:34:37
$GNGGA,113437.00,5215.21508,N,00005.47593,W,1,12,0.79,44.6,M,45.8,M,,*65
    1 image files updated
    1 image files updated
Pi photo: ../tracker-home-pi/pi/photos/11/000194.jpg
    1 image files updated
Time: 11:34:50
$GNGGA,113450.00,5215.21526,N,00005.47591,W,1,11,0.81,44.5,M,45.8,M,,*6D
    1 image files updated
    1 image files updated
Pi photo: ../tracker-home-pi/pi/photos/11/000195.jpg
    1 image files updated
Time: 11:35:03
$GNGGA,113503.00,5215.21541,N,00005.47555,W,1,10,0.87,43.2,M,45.8,M,,*64
    1 image files updated
    1 image files updated
Pi photo: ../tracker-home-pi/pi/photos/11/000196.jpg
    1 image files updated
Time: 11:35:15
$GNGGA,113515.00,5215.21592,N,00005.47672,W,1,11,0.82,42.7,M,45.8,M,,*6B
    1 image files updated
    1 image files updated
Pi photo: ../tracker-home-pi/pi/photos/11/000197.jpg
    1 image files updated
Time: 11:35:27
$GNGGA,113527.00,5215.21592,N,00005.47655,W,1,12,0.79,43.6,M,45.8,M,,*68
    1 image files updated
    1 image files updated
Pi photo: ../tracker-home-pi/pi/photos/11/000198.jpg
    1 image files updated
Time: 11:35:39
$GNGGA,113539.00,5215.21464,N,00005.47619,W,1,12,0.79,42.8,M,45.8,M,,*68
    1 image files updated
    1 image files updated
Pi photo: ../tracker-home-pi/pi/photos/11/000199.jpg
    1 image files updated
Time: 11:35:52
$GNGGA,113552.00,5215.21541,N,00005.47699,W,1,12,0.82,43.4,M,45.8,M,,*62
    1 image files updated
    1 image files updated
Pi photo: ../tracker-home-pi/pi/photos/11/000200.jpg
    1 image files updated
Time: 11:36:04
$GNGGA,113604.00,5215.21482,N,00005.47716,W,1,12,0.79,44.3,M,45.8,M,,*6E
    1 image files updated
    1 image files updated
Pi photo: ../tracker-home-pi/pi/photos/11/000201.jpg
    1 image files updated
Time: 11:36:16
$GNGGA,113616.00,5215.21489,N,00005.47742,W,1,12,0.82,45.9,M,45.8,M,,*68
    1 image files updated
    1 image files updated
Pi photo: ../tracker-home-pi/pi/photos/11/000202.jpg
    1 image files updated
Time: 11:36:29
$GNGGA,113629.00,5215.21521,N,00005.47721,W,1,11,0.82,47.6,M,45.8,M,,*6C
    1 image files updated
    1 image files updated
Pi photo: ../tracker-home-pi/pi/photos/11/000204.jpg
    1 image files updated
Time: 11:36:41
$GNGGA,113641.00,5215.21620,N,00005.47781,W,1,12,0.82,47.5,M,45.8,M,,*6A
    1 image files updated
    1 image files updated
Pi photo: ../tracker-home-pi/pi/photos/11/000205.jpg
    1 image files updated
Time: 11:36:53
$GNGGA,113653.00,5215.21470,N,00005.47863,W,1,11,0.82,47.0,M,45.8,M,,*6B
    1 image files updated
    1 image files updated
Pi photo: ../tracker-home-pi/pi/photos/11/000206.jpg
    1 image files updated
Time: 11:37:05
$GNGGA,113705.00,5215.21537,N,00005.47730,W,1,11,0.83,45.5,M,45.8,M,,*64
    1 image files updated
    1 image files updated
Pi photo: ../tracker-home-pi/pi/photos/11/000207.jpg
    1 image files updated
Time: 11:37:19
$GNGGA,113719.00,5215.21515,N,00005.47678,W,1,12,0.74,44.5,M,45.8,M,,*6E
    1 image files updated
    1 image files updated
Pi photo: ../tracker-home-pi/pi/photos/11/000208.jpg
    1 image files updated
Time: 11:37:31
$GNGGA,113731.00,5215.21450,N,00005.47794,W,1,12,0.78,45.8,M,45.8,M,,*67
    1 image files updated
    1 image files updated
Pi photo: ../tracker-home-pi/pi/photos/11/000209.jpg
    1 image files updated
Time: 11:37:43
$GNGGA,113743.00,5215.21566,N,00005.47780,W,1,12,0.78,45.6,M,45.8,M,,*6D
    1 image files updated
    1 image files updated
Pi photo: ../tracker-home-pi/pi/photos/11/000210.jpg
    1 image files updated
Time: 11:37:55
$GNGGA,113755.00,5215.21545,N,00005.47805,W,1,12,0.78,47.3,M,45.8,M,,*6E
    1 image files updated
    1 image files updated
Pi photo: ../tracker-home-pi/pi/photos/11/000211.jpg
    1 image files updated
Time: 11:38:08
$GNGGA,113808.00,5215.21497,N,00005.47671,W,1,12,0.78,47.7,M,45.8,M,,*6E
    1 image files updated
    1 image files updated
Pi photo: ../tracker-home-pi/pi/photos/11/000212.jpg
    1 image files updated
Time: 11:38:20
$GNGGA,113820.00,5215.21470,N,00005.47670,W,1,12,0.70,48.7,M,45.8,M,,*6B
    1 image files updated
    1 image files updated
Pi photo: ../tracker-home-pi/pi/photos/11/000213.jpg
    1 image files updated
Time: 11:38:32
$GNGGA,113832.00,5215.21462,N,00005.47785,W,1,12,0.73,49.6,M,45.8,M,,*63
    1 image files updated
    1 image files updated
Pi photo: ../tracker-home-pi/pi/photos/11/000215.jpg
    1 image files updated
Time: 11:38:46
$GNGGA,113846.00,5215.21524,N,00005.47791,W,1,10,0.99,48.7,M,45.8,M,,*60
    1 image files updated
    1 image files updated
Pi photo: ../tracker-home-pi/pi/photos/11/000216.jpg
    1 image files updated
Time: 11:38:58
$GNGGA,113858.00,5215.21500,N,00005.47754,W,1,12,0.78,48.9,M,45.8,M,,*63
    1 image files updated
    1 image files updated
Pi photo: ../tracker-home-pi/pi/photos/11/000217.jpg
    1 image files updated
Time: 11:39:10
$GNGGA,113910.00,5215.21345,N,00005.48924,W,1,12,0.73,52.9,M,45.8,M,,*6F
    1 image files updated
    1 image files updated
Pi photo: ../tracker-home-pi/pi/photos/11/000218.jpg
    1 image files updated
Time: 11:39:22
$GNGGA,113922.00,5215.21407,N,00005.48308,W,1,12,0.70,50.2,M,45.8,M,,*61
    1 image files updated
    1 image files updated
Pi photo: ../tracker-home-pi/pi/photos/11/000219.jpg
    1 image files updated
Time: 11:39:34
$GNGGA,113934.00,5215.20081,N,00005.41100,W,1,12,0.84,-4.8,M,45.8,M,,*73
    1 image files updated
    1 image files updated
Pi photo: ../tracker-home-pi/pi/photos/11/000220.jpg
    1 image files updated
Time: 11:39:47
$GNGGA,113947.00,5215.21061,N,00005.45753,W,1,12,0.69,27.4,M,45.8,M,,*6F
    1 image files updated
    1 image files updated
Pi photo: ../tracker-home-pi/pi/photos/11/000221.jpg
    1 image files updated
Time: 11:39:59
$GNGGA,113959.00,5215.21269,N,00005.47126,W,1,12,0.69,38.3,M,45.8,M,,*65
    1 image files updated
    1 image files updated
Pi photo: ../tracker-home-pi/pi/photos/11/000222.jpg
    1 image files updated
Time: 11:40:11
$GNGGA,114011.00,5215.21412,N,00005.47528,W,1,12,0.67,43.6,M,45.8,M,,*60
    1 image files updated
    1 image files updated
Pi photo: ../tracker-home-pi/pi/photos/11/000223.jpg
    1 image files updated
Time: 11:40:23
$GNGGA,114023.00,5215.21462,N,00005.47677,W,1,12,0.67,44.9,M,45.8,M,,*67
    1 image files updated
    1 image files updated
Pi photo: ../tracker-home-pi/pi/photos/11/000225.jpg
    1 image files updated
Time: 11:40:37
$GNGGA,114037.00,5215.21381,N,00005.47716,W,1,12,0.67,45.3,M,45.8,M,,*65
    1 image files updated
    1 image files updated
Pi photo: ../tracker-home-pi/pi/photos/11/000226.jpg
    1 image files updated
Time: 11:40:49
$GNGGA,114049.00,5215.21487,N,00005.47635,W,1,12,0.77,46.1,M,45.8,M,,*6D
    1 image files updated
    1 image files updated
Pi photo: ../tracker-home-pi/pi/photos/11/000227.jpg
    1 image files updated
Time: 11:41:01
$GNGGA,114101.00,5215.21455,N,00005.47476,W,1,12,0.72,45.7,M,45.8,M,,*6A
    1 image files updated
    1 image files updated
Pi photo: ../tracker-home-pi/pi/photos/11/000228.jpg
    1 image files updated
Time: 11:41:13
$GNGGA,114113.00,5215.21504,N,00005.46783,W,1,12,0.69,42.2,M,45.8,M,,*6C
    1 image files updated
    1 image files updated
Pi photo: ../tracker-home-pi/pi/photos/11/000229.jpg
    1 image files updated
Time: 11:41:26
$GNGGA,114126.00,5215.21446,N,00005.47941,W,1,12,0.69,46.7,M,45.8,M,,*6D
    1 image files updated
    1 image files updated
Pi photo: ../tracker-home-pi/pi/photos/11/000230.jpg
    1 image files updated
Time: 11:41:38
$GNGGA,114138.00,5215.21399,N,00005.47530,W,1,12,0.68,45.5,M,45.8,M,,*6D
    1 image files updated
    1 image files updated
Pi photo: ../tracker-home-pi/pi/photos/11/000231.jpg
    1 image files updated
Time: 11:41:50
$GNGGA,114150.00,5215.21451,N,00005.47102,W,1,12,0.68,39.3,M,45.8,M,,*68
    1 image files updated
    1 image files updated
Pi photo: ../tracker-home-pi/pi/photos/11/000232.jpg
    1 image files updated
Time: 11:42:02
$GNGGA,114202.00,5215.21494,N,00005.47314,W,1,12,0.76,40.1,M,45.8,M,,*63
    1 image files updated
    1 image files updated
Pi photo: ../tracker-home-pi/pi/photos/11/000233.jpg
    1 image files updated
Time: 11:42:16
$GNGGA,114216.00,5215.21442,N,00005.47378,W,1,12,0.67,41.5,M,45.8,M,,*62
    1 image files updated
    1 image files updated
Pi photo: ../tracker-home-pi/pi/photos/11/000235.jpg
    1 image files updated
Time: 11:42:28
$GNGGA,114228.00,5215.21471,N,00005.47384,W,1,12,0.68,42.7,M,45.8,M,,*62
    1 image files updated
    1 image files updated
Pi photo: ../tracker-home-pi/pi/photos/11/000236.jpg
    1 image files updated
Time: 11:42:40
$GNGGA,114240.00,5215.21453,N,00005.47417,W,1,12,0.65,43.3,M,45.8,M,,*69
    1 image files updated
    1 image files updated
Pi photo: ../tracker-home-pi/pi/photos/11/000237.jpg
    1 image files updated
Time: 11:42:52
$GNGGA,114252.00,5215.21339,N,00005.47461,W,1,12,0.72,43.2,M,45.8,M,,*67
    1 image files updated
    1 image files updated
Pi photo: ../tracker-home-pi/pi/photos/11/000238.jpg
    1 image files updated
Time: 11:43:06
$GNGGA,114306.00,5215.21288,N,00005.47624,W,1,12,0.67,45.6,M,45.8,M,,*69
    1 image files updated
    1 image files updated
Pi photo: ../tracker-home-pi/pi/photos/11/000239.jpg
    1 image files updated
Time: 11:43:18
$GNGGA,114318.00,5215.21429,N,00005.47848,W,1,12,0.67,50.0,M,45.8,M,,*6D
    1 image files updated
    1 image files updated
Pi photo: ../tracker-home-pi/pi/photos/11/000240.jpg
    1 image files updated
Time: 11:43:30
$GNGGA,114330.00,5215.21391,N,00005.47681,W,1,12,0.67,47.2,M,45.8,M,,*6C
    1 image files updated
    1 image files updated
Pi photo: ../tracker-home-pi/pi/photos/11/000241.jpg
    1 image files updated
Time: 11:43:42
$GNGGA,114342.00,5215.21385,N,00005.47668,W,1,12,0.67,46.5,M,45.8,M,,*6D
    1 image files updated
    1 image files updated
Pi photo: ../tracker-home-pi/pi/photos/11/000242.jpg
    1 image files updated
Time: 11:43:55
$GNGGA,114355.00,5215.21443,N,00005.47416,W,1,12,0.67,43.7,M,45.8,M,,*6A
    1 image files updated
    1 image files updated
Pi photo: ../tracker-home-pi/pi/photos/11/000243.jpg
    1 image files updated
Time: 11:44:07
$GNGGA,114407.00,5215.21391,N,00005.47513,W,1,12,0.67,44.9,M,45.8,M,,*6F
    1 image files updated
    1 image files updated
Pi photo: ../tracker-home-pi/pi/photos/11/000245.jpg
    1 image files updated
Time: 11:44:19
$GNGGA,114419.00,5215.21415,N,00005.47677,W,1,12,0.67,45.6,M,45.8,M,,*64
    1 image files updated
    1 image files updated
Pi photo: ../tracker-home-pi/pi/photos/11/000246.jpg
    1 image files updated
Time: 11:44:32
$GNGGA,114432.00,5215.21268,N,00005.47710,W,1,12,0.67,46.6,M,45.8,M,,*62
    1 image files updated
    1 image files updated
Pi photo: ../tracker-home-pi/pi/photos/11/000247.jpg
    1 image files updated
Time: 11:44:44
$GNGGA,114444.00,5215.21451,N,00005.47690,W,1,12,0.65,43.7,M,45.8,M,,*60
    1 image files updated
    1 image files updated
Pi photo: ../tracker-home-pi/pi/photos/11/000248.jpg
    1 image files updated
Time: 11:44:56
$GNGGA,114456.00,5215.21363,N,00005.47657,W,1,12,0.67,44.8,M,45.8,M,,*64
    1 image files updated
    1 image files updated
Pi photo: ../tracker-home-pi/pi/photos/11/000249.jpg
    1 image files updated
Time: 11:45:08
$GNGGA,114508.00,5215.21366,N,00005.47631,W,1,12,0.67,46.0,M,45.8,M,,*61
    1 image files updated
    1 image files updated
Pi photo: ../tracker-home-pi/pi/photos/11/000250.jpg
    1 image files updated
Time: 11:45:20
$GNGGA,114520.00,5215.21395,N,00005.47513,W,1,12,0.67,47.7,M,45.8,M,,*62
    1 image files updated
    1 image files updated
Pi photo: ../tracker-home-pi/pi/photos/11/000251.jpg
    1 image files updated
Time: 11:45:33
$GNGGA,114533.00,5215.21422,N,00005.47521,W,1,12,0.68,48.6,M,45.8,M,,*6B
    1 image files updated
    1 image files updated
Pi photo: ../tracker-home-pi/pi/photos/11/000252.jpg
    1 image files updated
Time: 11:45:45
$GNGGA,114545.00,5215.21376,N,00005.47424,W,1,12,0.68,46.2,M,45.8,M,,*62
    1 image files updated
    1 image files updated
Pi photo: ../tracker-home-pi/pi/photos/11/000253.jpg
    1 image files updated
Time: 11:45:57
$GNGGA,114557.00,5215.21333,N,00005.47538,W,1,12,0.68,43.8,M,45.8,M,,*63
    1 image files updated
    1 image files updated
Pi photo: ../tracker-home-pi/pi/photos/11/000254.jpg
    1 image files updated
Time: 11:46:09
$GNGGA,114609.00,5215.21410,N,00005.47536,W,1,12,0.68,45.8,M,45.8,M,,*65
    1 image files updated
    1 image files updated
Pi photo: blank-rpi-frame.jpg
    1 image files updated
Time: 11:46:22
$GNGGA,114622.00,5215.21637,N,00005.47682,W,1,12,0.82,47.3,M,45.8,M,,*6A
    1 image files updated
    1 image files updated
Pi photo: ../tracker-home-pi/pi/photos/11/000256.jpg
    1 image files updated
Time: 11:46:34
$GNGGA,114634.00,5215.21679,N,00005.47776,W,1,12,0.71,47.6,M,45.8,M,,*64
    1 image files updated
    1 image files updated
Pi photo: ../tracker-home-pi/pi/photos/11/000257.jpg
    1 image files updated
Time: 11:46:47
$GNGGA,114647.00,5215.21536,N,00005.47934,W,1,12,0.68,47.2,M,45.8,M,,*6C
    1 image files updated
    1 image files updated
Pi photo: ../tracker-home-pi/pi/photos/11/000258.jpg
    1 image files updated
Time: 11:46:59
$GNGGA,114659.00,5215.21133,N,00005.48750,W,1,12,0.68,75.2,M,45.8,M,,*60
    1 image files updated
    1 image files updated
Pi photo: ../tracker-home-pi/pi/photos/11/000259.jpg
    1 image files updated
Time: 11:47:11
$GNGGA,114711.00,5215.20117,N,00005.51001,W,1,12,0.66,146.5,M,45.8,M,,*59
    1 image files updated
    1 image files updated
Pi photo: ../tracker-home-pi/pi/photos/11/000260.jpg
    1 image files updated
Time: 11:47:24
$GNGGA,114724.00,5215.18962,N,00005.54287,W,1,12,0.70,228.4,M,45.8,M,,*5A
    1 image files updated
    1 image files updated
Pi photo: ../tracker-home-pi/pi/photos/11/000262.jpg
    1 image files updated
Time: 11:47:36
$GNGGA,114736.00,5215.19175,N,00005.57232,W,1,12,0.77,307.5,M,45.8,M,,*51
    1 image files updated
    1 image files updated
Pi photo: ../tracker-home-pi/pi/photos/11/000263.jpg
    1 image files updated
Time: 11:47:48
$GNGGA,114748.00,5215.19884,N,00005.60582,W,1,11,0.89,376.7,M,45.8,M,,*51
    1 image files updated
    1 image files updated
Pi photo: ../tracker-home-pi/pi/photos/11/000264.jpg
    1 image files updated
Time: 11:48:01
$GNGGA,114801.00,5215.20863,N,00005.65779,W,1,12,0.83,451.9,M,45.8,M,,*56
    1 image files updated
    1 image files updated
Pi photo: ../tracker-home-pi/pi/photos/11/000265.jpg
    1 image files updated
Time: 11:48:14
$GNGGA,114814.00,5215.21498,N,00005.69479,W,1,12,0.73,526.8,M,45.8,M,,*5B
    1 image files updated
    1 image files updated
Pi photo: ../tracker-home-pi/pi/photos/11/000266.jpg
    1 image files updated
Time: 11:48:26
$GNGGA,114826.00,5215.21698,N,00005.73136,W,1,12,0.66,594.1,M,45.8,M,,*59
    1 image files updated
    1 image files updated
Pi photo: ../tracker-home-pi/pi/photos/11/000267.jpg
    1 image files updated
Time: 11:48:38
$GNGGA,114838.00,5215.22287,N,00005.77224,W,1,12,0.66,660.4,M,45.8,M,,*56
    1 image files updated
    1 image files updated
Pi photo: ../tracker-home-pi/pi/photos/11/000268.jpg
    1 image files updated
Time: 11:48:50
$GNGGA,114850.00,5215.21813,N,00005.80735,W,1,12,0.67,727.8,M,45.8,M,,*5E
    1 image files updated
    1 image files updated
Pi photo: ../tracker-home-pi/pi/photos/11/000269.jpg
    1 image files updated
Time: 11:49:02
$GNGGA,114902.00,5215.24219,N,00005.82631,W,1,12,0.66,792.9,M,45.8,M,,*54
    1 image files updated
    1 image files updated
Pi photo: ../tracker-home-pi/pi/photos/11/000270.jpg
    1 image files updated
Time: 11:49:14
$GNGGA,114914.00,5215.25467,N,00005.84614,W,1,12,0.66,850.2,M,45.8,M,,*56
    1 image files updated
    1 image files updated
Pi photo: ../tracker-home-pi/pi/photos/11/000272.jpg
    1 image files updated
Time: 11:49:28
$GNGGA,114928.00,5215.28381,N,00005.88898,W,1,12,0.74,918.2,M,45.8,M,,*53
    1 image files updated
    1 image files updated
Pi photo: ../tracker-home-pi/pi/photos/11/000273.jpg
    1 image files updated
Time: 11:49:40
$GNGGA,114940.00,5215.31340,N,00005.90732,W,1,12,0.72,973.4,M,45.8,M,,*53
    1 image files updated
    1 image files updated
Pi photo: ../tracker-home-pi/pi/photos/11/000274.jpg
    1 image files updated
Time: 11:49:52
$GNGGA,114952.00,5215.35036,N,00005.93835,W,1,12,0.77,1050.9,M,45.8,M,,*6C
    1 image files updated
    1 image files updated
Pi photo: ../tracker-home-pi/pi/photos/11/000275.jpg
    1 image files updated
Time: 11:50:04
$GNGGA,115004.00,5215.39449,N,00005.95617,W,1,12,0.73,1118.3,M,45.8,M,,*6C
    1 image files updated
    1 image files updated
Pi photo: ../tracker-home-pi/pi/photos/11/000276.jpg
    1 image files updated
Time: 11:50:16
$GNGGA,115016.00,5215.43513,N,00005.96349,W,1,12,0.70,1190.8,M,45.8,M,,*69
    1 image files updated
    1 image files updated
Pi photo: ../tracker-home-pi/pi/photos/11/000277.jpg
    1 image files updated
Time: 11:50:29
$GNGGA,115029.00,5215.47469,N,00005.98420,W,1,12,0.73,1277.4,M,45.8,M,,*6E
    1 image files updated
    1 image files updated
Pi photo: ../tracker-home-pi/pi/photos/11/000278.jpg
    1 image files updated
Time: 11:50:41
$GNGGA,115041.00,5215.52991,N,00006.01730,W,1,12,0.66,1361.6,M,45.8,M,,*6F
    1 image files updated
    1 image files updated
Pi photo: ../tracker-home-pi/pi/photos/11/000279.jpg
    1 image files updated
Time: 11:50:53
$GNGGA,115053.00,5215.58048,N,00006.03301,W,1,12,0.66,1443.3,M,45.8,M,,*6D
    1 image files updated
    1 image files updated
Pi photo: ../tracker-home-pi/pi/photos/11/000280.jpg
    1 image files updated
Time: 11:51:05
$GNGGA,115105.00,5215.61686,N,00006.05911,W,1,12,0.74,1525.2,M,45.8,M,,*6F
    1 image files updated
    1 image files updated
Pi photo: ../tracker-home-pi/pi/photos/11/000281.jpg
    1 image files updated
Time: 11:51:17
$GNGGA,115117.00,5215.65769,N,00006.07872,W,1,12,0.67,1603.1,M,45.8,M,,*68
    1 image files updated
    1 image files updated
Pi photo: ../tracker-home-pi/pi/photos/11/000283.jpg
    1 image files updated
Time: 11:51:30
$GNGGA,115130.00,5215.70646,N,00006.10693,W,1,12,0.71,1683.0,M,45.8,M,,*6C
    1 image files updated
    1 image files updated
Pi photo: ../tracker-home-pi/pi/photos/11/000284.jpg
    1 image files updated
Time: 11:51:42
$GNGGA,115142.00,5215.77327,N,00006.12819,W,1,11,0.82,1760.5,M,45.8,M,,*64
    1 image files updated
    1 image files updated
Pi photo: ../tracker-home-pi/pi/photos/11/000285.jpg
    1 image files updated
Time: 11:51:54
$GNGGA,115154.00,5215.83256,N,00006.16038,W,1,12,0.78,1835.9,M,45.8,M,,*65
    1 image files updated
    1 image files updated
Pi photo: ../tracker-home-pi/pi/photos/11/000286.jpg
    1 image files updated
Time: 11:52:06
$GNGGA,115206.00,5215.88581,N,00006.17691,W,1,12,0.69,1910.7,M,45.8,M,,*6B
    1 image files updated
    1 image files updated
Pi photo: ../tracker-home-pi/pi/photos/11/000287.jpg
    1 image files updated
Time: 11:52:19
$GNGGA,115219.00,5215.93254,N,00006.20455,W,1,12,0.66,1988.2,M,45.8,M,,*65
    1 image files updated
    1 image files updated
Pi photo: ../tracker-home-pi/pi/photos/11/000288.jpg
    1 image files updated
Time: 11:52:31
$GNGGA,115231.00,5215.98642,N,00006.21992,W,1,12,0.67,2059.6,M,45.8,M,,*63
    1 image files updated
    1 image files updated
Pi photo: ../tracker-home-pi/pi/photos/11/000289.jpg
    1 image files updated
Time: 11:52:43
$GNGGA,115243.00,5216.04076,N,00006.25827,W,1,12,0.69,2128.2,M,45.8,M,,*67
    1 image files updated
    1 image files updated
Pi photo: ../tracker-home-pi/pi/photos/11/000290.jpg
    1 image files updated
Time: 11:52:55
$GNGGA,115255.00,5216.09554,N,00006.29589,W,1,12,0.71,2200.0,M,45.8,M,,*6F
    1 image files updated
    1 image files updated
Pi photo: ../tracker-home-pi/pi/photos/11/000291.jpg
    1 image files updated
Time: 11:53:07
$GNGGA,115307.00,5216.15250,N,00006.32452,W,1,12,0.66,2273.4,M,45.8,M,,*6C
    1 image files updated
    1 image files updated
Pi photo: ../tracker-home-pi/pi/photos/11/000292.jpg
    1 image files updated
Time: 11:53:20
$GNGGA,115320.00,5216.20571,N,00006.34801,W,1,12,0.76,2349.6,M,45.8,M,,*6C
    1 image files updated
    1 image files updated
Pi photo: ../tracker-home-pi/pi/photos/11/000294.jpg
    1 image files updated
Time: 11:53:33
$GNGGA,115333.00,5216.26021,N,00006.37150,W,1,11,0.79,2425.9,M,45.8,M,,*68
    1 image files updated
    1 image files updated
Pi photo: ../tracker-home-pi/pi/photos/11/000295.jpg
    1 image files updated
Time: 11:53:45
$GNGGA,115345.00,5216.31345,N,00006.39677,W,1,12,0.76,2498.1,M,45.8,M,,*60
    1 image files updated
    1 image files updated
Pi photo: ../tracker-home-pi/pi/photos/11/000296.jpg
    1 image files updated
Time: 11:53:57
$GNGGA,115357.00,5216.37405,N,00006.41266,W,1,12,0.74,2570.2,M,45.8,M,,*6B
    1 image files updated
    1 image files updated
Pi photo: ../tracker-home-pi/pi/photos/11/000297.jpg
    1 image files updated
Time: 11:54:10
$GNGGA,115410.00,5216.43496,N,00006.45315,W,1,12,0.70,2645.3,M,45.8,M,,*67
    1 image files updated
    1 image files updated
Pi photo: ../tracker-home-pi/pi/photos/11/000298.jpg
    1 image files updated
Time: 11:54:22
$GNGGA,115422.00,5216.48794,N,00006.45388,W,1,12,0.74,2710.8,M,45.8,M,,*66
    1 image files updated
    1 image files updated
Pi photo: ../tracker-home-pi/pi/photos/11/000299.jpg
    1 image files updated
Time: 11:54:34
$GNGGA,115434.00,5216.55897,N,00006.47602,W,1,12,0.68,2773.9,M,45.8,M,,*6D
    1 image files updated
    1 image files updated
Pi photo: ../tracker-home-pi/pi/photos/11/000300.jpg
    1 image files updated
Time: 11:54:47
$GNGGA,115447.00,5216.61664,N,00006.51617,W,1,12,0.66,2847.7,M,45.8,M,,*67
    1 image files updated
    1 image files updated
Pi photo: ../tracker-home-pi/pi/photos/11/000301.jpg
    1 image files updated
Time: 11:54:59
$GNGGA,115459.00,5216.67000,N,00006.53238,W,1,12,0.71,2916.6,M,45.8,M,,*63
    1 image files updated
    1 image files updated
Pi photo: ../tracker-home-pi/pi/photos/11/000302.jpg
    1 image files updated
Time: 11:55:11
$GNGGA,115511.00,5216.73593,N,00006.55239,W,1,12,0.70,2980.2,M,45.8,M,,*69
    1 image files updated
    1 image files updated
Pi photo: ../tracker-home-pi/pi/photos/11/000304.jpg
    1 image files updated
Time: 11:55:24
$GNGGA,115524.00,5216.78993,N,00006.56722,W,1,12,0.69,3052.2,M,45.8,M,,*6B
    1 image files updated
    1 image files updated
Pi photo: ../tracker-home-pi/pi/photos/11/000305.jpg
    1 image files updated
Time: 11:55:36
$GNGGA,115536.00,5216.83029,N,00006.58686,W,1,12,0.68,3124.0,M,45.8,M,,*66
    1 image files updated
    1 image files updated
Pi photo: ../tracker-home-pi/pi/photos/11/000306.jpg
    1 image files updated
Time: 11:55:48
$GNGGA,115548.00,5216.85935,N,00006.59036,W,1,12,0.70,3194.4,M,45.8,M,,*67
    1 image files updated
    1 image files updated
Pi photo: ../tracker-home-pi/pi/photos/11/000307.jpg
    1 image files updated
Time: 11:56:01
$GNGGA,115601.00,5216.88806,N,00006.57940,W,1,12,0.75,3265.8,M,45.8,M,,*67
    1 image files updated
    1 image files updated
Pi photo: ../tracker-home-pi/pi/photos/11/000308.jpg
    1 image files updated
Time: 11:56:13
$GNGGA,115613.00,5216.90339,N,00006.56336,W,1,12,0.76,3336.5,M,45.8,M,,*69
    1 image files updated
    1 image files updated
Pi photo: ../tracker-home-pi/pi/photos/11/000309.jpg
    1 image files updated
Time: 11:56:25
$GNGGA,115625.00,5216.92596,N,00006.54008,W,1,12,0.72,3408.3,M,45.8,M,,*69
    1 image files updated
    1 image files updated
Pi photo: ../tracker-home-pi/pi/photos/11/000310.jpg
    1 image files updated
Time: 11:56:38
$GNGGA,115638.00,5216.94874,N,00006.53008,W,1,12,0.67,3484.2,M,45.8,M,,*64
    1 image files updated
    1 image files updated
Pi photo: ../tracker-home-pi/pi/photos/11/000311.jpg
    1 image files updated
Time: 11:56:50
$GNGGA,115650.00,5216.97988,N,00006.49473,W,1,12,0.67,3550.3,M,45.8,M,,*61
    1 image files updated
    1 image files updated
Pi photo: ../tracker-home-pi/pi/photos/11/000312.jpg
    1 image files updated
Time: 11:57:02
$GNGGA,115702.00,5217.00843,N,00006.46432,W,1,12,0.67,3618.6,M,45.8,M,,*6E
    1 image files updated
    1 image files updated
Pi photo: ../tracker-home-pi/pi/photos/11/000314.jpg
    1 image files updated
Time: 11:57:15
$GNGGA,115715.00,5217.03770,N,00006.47956,W,1,12,0.70,3689.6,M,45.8,M,,*64
    1 image files updated
    1 image files updated
Pi photo: ../tracker-home-pi/pi/photos/11/000315.jpg
    1 image files updated
Time: 11:57:27
$GNGGA,115727.00,5217.07739,N,00006.47262,W,1,11,0.78,3749.3,M,45.8,M,,*63
    1 image files updated
    1 image files updated
Pi photo: ../tracker-home-pi/pi/photos/11/000316.jpg
    1 image files updated
Time: 11:57:39
$GNGGA,115739.00,5217.11938,N,00006.47997,W,1,12,0.77,3822.0,M,45.8,M,,*68
    1 image files updated
    1 image files updated
Pi photo: ../tracker-home-pi/pi/photos/11/000317.jpg
    1 image files updated
Time: 11:57:52
$GNGGA,115752.00,5217.15320,N,00006.47838,W,1,12,0.70,3898.2,M,45.8,M,,*62
    1 image files updated
    1 image files updated
Pi photo: ../tracker-home-pi/pi/photos/11/000318.jpg
    1 image files updated
Time: 11:58:04
$GNGGA,115804.00,5217.18699,N,00006.48068,W,1,12,0.71,3969.0,M,45.8,M,,*6A
    1 image files updated
    1 image files updated
Pi photo: ../tracker-home-pi/pi/photos/11/000319.jpg
    1 image files updated
Time: 11:58:16
$GNGGA,115816.00,5217.20739,N,00006.46427,W,1,12,0.68,4034.8,M,45.8,M,,*6E
    1 image files updated
    1 image files updated
Pi photo: ../tracker-home-pi/pi/photos/11/000320.jpg
    1 image files updated
Time: 11:58:28
$GNGGA,115828.00,5217.24858,N,00006.45754,W,1,12,0.68,4107.3,M,45.8,M,,*61
    1 image files updated
    1 image files updated
Pi photo: ../tracker-home-pi/pi/photos/11/000321.jpg
    1 image files updated
Time: 11:58:40
$GNGGA,115840.00,5217.28930,N,00006.48381,W,1,12,0.69,4182.6,M,45.8,M,,*64
    1 image files updated
    1 image files updated
